ListId,Status ,DaysOnMarket,GrossFloorArea,AdjustedLivingArea,PropertyType,HOAFee,PropertyTax,Bedrooms,Bathrooms,YearBuilt,GarageSpace,Address,Area,City,Province,Latitude,Longitude,ListPrice
1,Available,43,1244,1095,Condo,3310,6025,3,2,2004,2,86 Waterford Dr,Richview,Toronto,ON,43.679882,-79.544266,980000
2,Available,22,646,568,Condo,2780,4886,1,1,2012,1,#80 - 100 BEDDOE DR,Chedoke Park B,Hamilton,ON,43.25,-79.904396,399900
3,Available,103,505,444,Condo,2520,5853,1,1,2013,1,213 Bowman Street,Ainslie Wood East,Hamilton,ON,43.25169,-79.919357,479000
4,Available,60,1714,1371,Semi-Detached,3650,4715,3,2,2004,2,102 NEIL Avenue,Greenford,Hamilton,ON,43.227161,-79.767403,385900
5,Available,113,574,505,Condo,2660,4070,1,1,2013,1,#1409 - 230 King St,Downtown,Toronto,ON,43.651478,-79.368118,662000
6,Available,13,1342,1074,Semi-Detached,3580,5459,3,2,2005,2,254A Monarch Park Ave,Old East York,Toronto,ON,43.686375,-79.328918,888000
7,Available,260,6730,5384,Detached,4020,9222,7,7,1963,4,532 Caledonia Rd,Fairbank,Toronto,ON,43.691193,-79.461662,1500000
8,Available,105,643,566,Condo,2210,3115,1,1,2009,1,11 REBECCA Street,Central Hamilton,Hamilton,ON,43.258541,-79.867615,254900
9,Available,42,1843,1474,Detached,3640,4459,4,3,1999,2,617 BRIGADOON Drive,Gourley,Hamilton,ON,43.216557,-79.904991,364900
10,Available,58,569,501,Condo,2460,3725,1,1,2010,1,51 - 255 MOUNT ALBION Road,Red Hill,Hamilton,ON,43.215706,-79.794189,304900
11,Available,117,704,620,Condo,2870,2123,2,1,2008,1,1170 LAMBTON Drive,Clearview,Oakville,ON,43.495579,-79.658272,289000
12,Available,29,829,730,Condo,2860,3154,2,1,2013,1,47 Armstrong Ave,Wallace Emerson,Toronto,ON,43.664101,-79.439751,513000
13,Available,31,735,647,Condo,2850,3688,2,1,2006,1,3 Bracebridge Ave,Old East York,Toronto,ON,43.697842,-79.317368,599900
14,Available,20,1495,1196,Semi-Detached,3770,5348,3,2,2007,2,#808 - 2167 Lake Shore Blvd,Parkdale,Toronto,ON,43.635578,-79.441345,870000
15,Available,29,618,544,Condo,2920,3012,1,1,2016,1,#2706 - 2167 Lake Shore Blvd,Parkdale,Toronto,ON,43.635578,-79.441345,490000
16,Available,48,595,524,Condo,2490,4954,1,1,2013,1,#710 - 1080 Bay St,Downtown,Toronto,ON,43.666794,-79.388756,805900
17,Available,100,1929,1543,Detached,3630,5963,4,3,2000,2,#A - 753 Shaw St,Midtown Toronto,Toronto,ON,43.662872,-79.423233,970000
18,Available,23,798,702,Condo,2930,3381,2,1,2011,1,160 Jenkinson Way,Dorset Park,Toronto,ON,43.749599,-79.270844,549900
19,Available,108,748,658,Condo,2960,5226,2,1,2007,1,40 Hawthorne Rd,Richview,Toronto,ON,43.692314,-79.552635,850000
20,Available,84,1864,1491,Detached,3700,5828,4,3,1996,2,#4905 - 16 Harbour St,Downtown,Toronto,ON,43.642578,-79.3769,948000
21,Available,109,582,512,Condo,2330,2023,1,1,2011,1,166 Mcnicoll Ave,Hillcrest Village,Toronto,ON,43.79948,-79.357445,329000
22,Available,15,803,707,Condo,3170,4150,2,1,2005,1,430 Military Tr,Morningside,Toronto,ON,43.788639,-79.207932,675000
23,Available,52,776,683,Condo,3060,3154,2,1,2009,1,67 Montressor Dr,St. Andrew - Windfields,Toronto,ON,43.759003,-79.392075,513000
24,Available,53,763,671,Condo,3330,3012,2,1,2012,1,46 Bruce Farm Dr,Bayview Woods - Steeles,Toronto,ON,43.799358,-79.377914,490000
25,Available,95,2024,1619,Detached,3480,5834,4,3,1994,2,#1215 - 2627 Mccowan Rd,Agincourt,Toronto,ON,43.807091,-79.265533,949000
26,Available,111,507,446,Condo,2990,1998,1,1,2009,1,247 Westmount Ave,St. Clair West Village,Toronto,ON,43.68227,-79.44339,325000
27,Available,24,1725,1380,Detached,3720,3073,4,3,2002,2,31 Yorkshire Rd,Ionview,Toronto,ON,43.740097,-79.273987,499900
28,Available,55,595,524,Condo,2880,3682,1,1,2009,1,34 Ordway Rd,Kennedy Park,Toronto,ON,43.733814,-79.25,599000
29,Available,68,1563,1250,Semi-Detached,3560,5225,3,2,2005,2,47 Waterbeach Cres,Rexdale,Toronto,ON,43.726189,-79.582047,849900
30,Available,34,588,517,Condo,2240,4291,1,1,2019,1,2 Moraine Hill Dr,Tam O'Shanter,Toronto,ON,43.774624,-79.298141,698000
31,Available,117,804,708,Condo,3180,1506,2,1,2012,1,11 Mid Pines Rd,Woburn,Toronto,ON,43.769413,-79.211456,245000
32,Available,111,753,663,Condo,2460,2766,2,1,2013,1,#1002 - 61 Richview Rd,Humber Heights - Westmount,Toronto,ON,43.68417,-79.516685,450000
33,Available,92,1607,1286,Semi-Detached,3640,4580,3,2,2008,2,20 Shrewsbury Sq,Tam O'Shanter - Sullivan,Toronto,ON,43.772118,-79.309311,745000
34,Available,82,798,702,Condo,2570,2078,2,1,2011,1,#18 - 170 Wickson Tr,Malvern,Toronto,ON,43.805099,-79.21196,338000
35,Available,87,724,637,Condo,3190,4302,2,1,2008,1,6 Willesden Rd,Don Valley Village,Toronto,ON,43.792187,-79.365669,699800
36,Available,11,541,476,Condo,2890,3842,1,1,2011,1,#2705 - 70 Temperance St,Downtown,Toronto,ON,43.650372,-79.382347,625000
37,Available,65,1655,1324,Semi-Detached,3450,3228,3,2,2002,2,37 Chapel Park Sq,Milliken,Toronto,ON,43.821087,-79.314796,525000
38,Available,117,528,465,Condo,2240,2146,1,1,2018,1,49 Cadillac Ave,Wilson Heights,Toronto,ON,43.734875,-79.441017,349000
39,Available,88,1329,1063,Semi-Detached,3500,4795,3,2,2007,2,#711 - 16 Harrison Garden Blvd,Willowdale,Toronto,ON,43.757698,-79.409042,780000
40,Available,29,1644,1315,Detached,3420,5963,4,3,1994,2,#3711 - 11 Brunel Crt,Downtown,Toronto,ON,43.6395,-79.393425,970000
41,Available,67,2775,2220,Detached,3500,4610,5,4,1996,3,4 Danube Dr,Wexford - Maryvale,Toronto,ON,43.742485,-79.296707,749900
42,Available,120,544,479,Condo,2710,2576,1,1,2013,1,#1209 - 35 Finch Ave,Willowdale,Toronto,ON,43.779987,-79.412735,419000
43,Available,11,1882,1506,Detached,3410,4886,4,3,1996,2,61 Mayland Tr,Hamilton,Hamilton,ON,43.19001,-79.774529,399900
44,Available,70,635,559,Condo,2280,4020,1,1,2013,1,48 Evans St,Central Hamilton,Hamilton,ON,43.25713,-79.855667,329000
45,Available,35,550,484,Condo,2570,4215,1,1,2009,1,397 East 21st St,Burkholme,Hamilton,ON,43.228962,-79.857834,345000
46,Available,119,578,509,Condo,2430,2627,1,1,2016,1,412 Wilson Ave,Central Hamilton,Hamilton,ON,43.254719,-79.851631,215000
47,Available,380,596,524,Condo,2770,5497,1,1,2010,1,312 WEXFORD AVE S,Delta East,Hamilton,ON,43.232216,-79.816681,449900
48,Available,95,877,772,Condo,2800,2809,2,1,2009,1,532 FERGUSON AVE N,North End East,Hamilton,ON,43.27071,-79.854385,229900
49,Available,59,569,501,Condo,2850,3042,1,1,2018,1,52 WILLIAM Street,Landsdale,Hamilton,ON,43.260704,-79.845901,249000
50,Available,53,556,489,Condo,2710,7148,1,1,2013,1,5 WEST - 174 MOUNTAIN PARK Avenue,East Hamilton,Hamilton,ON,43.242687,-79.852043,585000
51,Available,76,835,735,Condo,2610,4886,2,1,2009,1,374 BERKINDALE Drive,Riverdale East,Hamilton,ON,43.226192,-79.744423,399900
52,Available,104,1496,1197,Semi-Detached,3740,7331,3,2,2000,2,15 JOHN Street,Central Hamilton,Hamilton,ON,43.25642,-79.86644,600000
53,Available,42,1872,1498,Detached,3670,8712,4,3,2002,2,15 JOHN Street,Central Hamilton,Hamilton,ON,43.25642,-79.86644,713000
54,Available,112,840,739,Condo,2960,2931,2,1,2010,1,50 ARMSTRONG Avenue,McQuesten West,Hamilton,ON,43.235504,-79.781685,239900
55,Available,17,769,677,Condo,2530,3409,2,1,2009,1,259 STRATHEARNE Avenue,Homeside,Hamilton,ON,43.244816,-79.797966,279000
56,Available,111,816,718,Condo,3280,2937,2,1,2013,1,210 1490 Bishops Gate,Glen Abbey,Oakville,ON,43.439903,-79.739502,399900
57,Available,74,1748,1398,Detached,3540,4773,4,3,1999,2,87 CHISHOLM ST,Oakville,Oakville,ON,43.441227,-79.672119,649900
58,Available,45,1365,1092,Semi-Detached,3730,7256,3,2,2004,2,6 1267 Dorval Drive,Oakville,Oakville,ON,43.449455,-79.711067,988000
59,Available,39,559,492,Condo,2880,1681,1,1,2014,1,3153 OLD BRONTE RD N,Oakville,Oakville,ON,43.439838,-79.781158,228888
60,Available,119,643,566,Condo,2710,2203,1,1,2014,1,121 ELTON PARK Road,Oakville,Oakville,ON,43.45615,-79.658463,300000
61,Available,105,896,788,Condo,3000,826,2,1,2006,1,144 Kerr Street,Kerr Village,Oakville,ON,43.440445,-79.676041,112500
62,Available,71,1676,1341,Detached,3660,4774,4,3,1994,2,2491 Hemmford Drive,West Oak Trails,Oakville,ON,43.426399,-79.758904,650000
63,Available,57,753,663,Condo,3240,3223,2,1,2013,1,104 2338 Taunton Drive,Uptown Core,Oakville,ON,43.481838,-79.71537,438888
64,Available,15,636,560,Condo,2790,2196,1,1,2009,1,447 DRUMMOND Road,Oakville,Oakville,ON,43.471046,-79.662132,299000
65,Available,113,1318,1054,Semi-Detached,3600,2523,3,2,2003,2,#427 - 2480 PRINCE MICHAEL DR,Oakville,Oakville,ON,43.497147,-79.707939,343500
66,Available,96,729,642,Condo,3150,1395,2,1,2004,1,493 DUNDAS ST,Oakville,Oakville,ON,43.466911,-79.745033,190000
67,Available,62,841,740,Condo,3240,2203,2,1,2012,1,3169 Trailside Drive,Oakville,Oakville,ON,43.470753,-79.747871,299900
68,Available,65,883,777,Condo,2790,6603,2,1,2008,1,2482 Felhaber Crescent,Oakville,Oakville,ON,43.49506,-79.709579,899000
69,Available,84,822,723,Condo,2810,4605,2,1,2013,1,9 Struthers St,Mimico,Toronto,ON,43.609005,-79.496078,749000
70,Available,84,837,737,Condo,2810,3995,2,1,2008,1,1574 Pharmacy Ave,Wexford - Maryvale,Toronto,ON,43.763866,-79.312263,649900
71,Available,11,556,489,Condo,2370,3661,1,1,2017,1,26 Waterbury Dr,Richview,Toronto,ON,43.687061,-79.571083,595500
72,Available,93,850,748,Condo,2510,1933,2,1,2008,1,44 Dewlane Dr,Newtonbrook,Toronto,ON,43.787003,-79.441383,314500
73,Available,103,1219,975,Semi-Detached,3870,1918,3,2,2005,2,#3010 - 65 St  Mary St,Downtown,Toronto,ON,43.666897,-79.389038,312000
74,Available,30,1553,1242,Semi-Detached,3610,4364,3,2,2008,2,1 Silbury Dr,Agincourt,Toronto,ON,43.809811,-79.263359,709900
75,Available,118,514,452,Condo,2850,3688,1,1,2018,1,1465A Birchmount Rd,Dorset Park,Toronto,ON,43.755791,-79.28788,599900
76,Available,26,2136,1709,Detached,3700,5072,4,3,2001,2,85 Autumn Glen Circ,Rexdale,Toronto,ON,43.733597,-79.608871,825000
77,Available,13,1696,1357,Semi-Detached,3880,4605,3,2,2008,2,143 Princess Margaret Blvd,Princess Margaret,Toronto,ON,43.666405,-79.553543,749000
78,Available,35,515,453,Condo,2180,1294,1,1,2010,1,#9 - 42 Pinery Tr,Malvern,Toronto,ON,43.807106,-79.227829,210500
79,Available,108,1484,1187,Semi-Detached,3840,4230,3,2,1999,2,175 Haddington Ave,Nortown,Toronto,ON,43.733734,-79.425026,688000
80,Available,75,881,775,Condo,3070,2336,2,1,2011,1,## 911 - 5 Shady Gfwy,Flemingdon Park,Toronto,ON,43.717915,-79.326309,379900
81,Available,115,1755,1404,Detached,3620,1844,4,3,2003,2,#1805 - 16 Harrison Garden Blvd,Willowdale,Toronto,ON,43.757698,-79.409042,299900
82,Available,88,794,699,Condo,2820,2415,2,1,2007,1,68 Kenilworth Ave,The Beach,Toronto,ON,43.668091,-79.301514,392900
83,Available,27,561,494,Condo,2710,2458,1,1,2014,1,#1505 - 125 Western Battery Rd,Niagara,Toronto,ON,43.639946,-79.416664,399900
84,Available,50,809,712,Condo,2840,1998,2,1,2009,1,110 Kirker Ave,Woburn,Toronto,ON,43.759617,-79.206642,325000
85,Available,17,588,517,Condo,3100,3000,1,1,2009,1,138 Mckee Ave,Willowdale,Toronto,ON,43.774734,-79.405685,488000
86,Available,93,4129,3303,Detached,3580,3369,5,4,1994,3,#2403 - 375 King St,Downtown,Toronto,ON,43.645641,-79.392952,548000
87,Available,71,1500,1245,Townhouse,3200,4230,3,2,2005,2,22 Strathearn Blvd,Midtown Toronto,Toronto,ON,43.691135,-79.415573,688000
88,Available,16,612,539,Condo,2040,1933,1,1,2017,1,5051 Finch Ave,Bridlewood,Toronto,ON,43.796768,-79.315636,314500
89,Available,80,1693,1354,Detached,3800,1900,4,3,2002,2,#406 - 300 Manitoba St,Mimico,Toronto,ON,43.62421,-79.489449,309000
90,Available,100,3608,2886,Detached,3640,2269,6,4,1989,3,#1901 - 231 Fort York Blvd,Niagara,Toronto,ON,43.636837,-79.406052,369000
91,Available,63,1709,1367,Detached,3840,2582,4,3,2001,2,#1010 - 65 East Liberty St,Liberty Village,Toronto,ON,43.638054,-79.414818,420000
92,Available,56,868,764,Condo,3080,3891,2,1,2009,1,#3706 - 15 Fort York Blvd,Downtown,Toronto,ON,43.640057,-79.393967,633000
93,Available,52,1582,1266,Semi-Detached,3450,2637,3,2,2005,2,#203 - 17 Kenaston Gdns,Bayview Village,Toronto,ON,43.766094,-79.385582,429000
94,Available,91,642,565,Condo,2960,3437,1,1,2011,1,#502 - 2 Anndale Dr,Willowdale,Toronto,ON,43.760464,-79.410248,559000
95,Available,48,1982,1586,Detached,3550,4303,4,3,1997,2,1060 Midland Ave,Bendale,Toronto,ON,43.744205,-79.262428,699900
96,Available,33,787,693,Condo,2870,1937,2,1,2012,1,#701 - 3 Massey Sq,Old East York,Toronto,ON,43.696827,-79.293411,315000
97,Available,40,621,546,Condo,2480,2631,1,1,2010,1,#711 - 33 Singer Crt,Bayview Village,Toronto,ON,43.769611,-79.368416,428000
98,Available,97,821,722,Condo,2450,1924,2,1,2009,1,70 Dundalk Dr,Dorset Park,Toronto,ON,43.769642,-79.286133,313000
99,Available,44,517,455,Condo,2460,2144,1,1,2015,1,#1127 - 5 Everson Dr,Willowdale,Toronto,ON,43.757408,-79.406853,348800
100,Available,33,700,616,Condo,2610,1905,2,1,2010,1,#1501 - 3050 Ellesmere Rd,Morningside,Toronto,ON,43.786037,-79.197723,309900
101,Available,36,1762,1410,Semi-Detached,3670,6080,3,2,2000,2,112 Helendale Ave,Midtown Toronto,Toronto,ON,43.708542,-79.402115,989000
102,Available,21,1817,1454,Detached,3690,2741,4,3,1997,2,#2004 - 21 Balmuto St,Downtown,Toronto,ON,43.669151,-79.387375,445900
103,Available,68,650,572,Condo,2770,1967,1,1,2011,1,#707 - 5 Rowntree Rd,Rexdale,Toronto,ON,43.74955,-79.58075,319901
104,Available,55,884,778,Condo,3080,3228,2,1,2009,1,255 Seaton St,Downtown,Toronto,ON,43.660812,-79.370216,525000
105,Available,92,854,752,Condo,2640,4297,2,1,2008,1,45 Valhalla Blvd,Birch Cliff,Toronto,ON,43.688419,-79.267677,699000
106,Available,113,890,783,Condo,3060,3197,2,1,2006,1,#917 - 103 The Queensway Ave,Swansea,Toronto,ON,43.636292,-79.470467,520000
107,Available,80,1207,966,Semi-Detached,3480,1260,3,2,2008,2,#512 - 35 Bastion St,Niagara,Toronto,ON,43.637207,-79.403572,205000
108,Available,67,828,729,Condo,2420,2458,2,1,2011,1,102 Mcgillivray Ave,Nortown,Toronto,ON,43.736374,-79.430412,399900
109,Available,114,646,568,Condo,2340,1844,1,1,2012,1,1 Axsmith Cres,Don Valley Village,Toronto,ON,43.78788,-79.351738,300000
110,Available,79,640,563,Condo,2800,1998,1,1,2011,1,#1912 - 62 Forest Manor Rd,Henry Farm,Toronto,ON,43.773922,-79.345726,325000
111,Available,49,1268,1014,Semi-Detached,3710,2766,3,2,2002,2,14 Rosemount Dr,Ionview,Toronto,ON,43.732124,-79.275276,450000
112,Available,102,529,466,Condo,2770,2146,1,1,2010,1,9 Isaac Devins Blvd,Humberlea,Toronto,ON,43.729229,-79.534203,349000
113,Available,63,1701,1361,Semi-Detached,3440,2551,3,2,2007,2,#2202 - 88 Grangeway Ave,Woburn,Toronto,ON,43.773827,-79.250023,415000
114,Available,30,1504,1203,Detached,3600,1967,4,3,2001,2,#3601 - 2220 Lakeshore Blvd,Mimico,Toronto,ON,43.62273,-79.483192,320000
115,Available,50,802,706,Condo,3240,2548,2,1,2011,1,#320 - 18 William Carson Cres,York Mills,Toronto,ON,43.749531,-79.407188,414500
116,Available,76,859,756,Condo,2440,2945,2,1,2008,1,#537 - 665 Kennedy Rd,Scarborough Junction,Toronto,ON,43.72599,-79.265015,479000
117,Available,72,1891,1513,Detached,3770,4998,4,3,2002,2,#2112 - 4968 Yonge St,Lansing,Toronto,ON,43.765152,-79.412277,813000
118,Available,87,1925,1540,Detached,3710,2822,4,3,1998,2,#2709 - 70 Temperance St,Downtown,Toronto,ON,43.650372,-79.382347,459000
119,Available,94,2191,1753,Detached,3880,5072,4,3,2001,2,179 Carolbreen Sq,Milliken,Toronto,ON,43.807594,-79.28289,825000
120,Available,33,578,509,Condo,2980,2520,1,1,2018,1,#2708 - 5168 Yonge St,Willowdale,Toronto,ON,43.769829,-79.413467,409900
121,Available,65,616,542,Condo,3370,3105,1,1,2014,1,#1003 - 763 Bay St,Downtown,Toronto,ON,43.660103,-79.385086,505000
122,Available,118,820,722,Condo,3400,3566,2,1,2012,1,#1905 - 17 Anndale Dr,Willowdale,Toronto,ON,43.760136,-79.40789,580000
123,Available,64,549,483,Condo,3060,2644,1,1,2017,1,#303 - 5229 Dundas St,Islington - City Centre West,Toronto,ON,43.639355,-79.536949,430000
124,Available,32,875,770,Condo,3040,3228,2,1,2005,1,#1509 - 88 Alton Towers Circ,Toronto,Toronto,ON,43.824669,-79.274445,525000
125,Available,94,5379,4303,Detached,3660,3725,6,4,1989,3,#2002 - 2 Anndale Dr,Willowdale,Toronto,ON,43.760464,-79.410248,605900
126,Available,35,750,660,Condo,3020,3381,2,1,2013,1,#613 - 4064 Lawrence Ave,West Hill,Toronto,ON,43.76638,-79.197601,550000
127,Available,30,733,645,Condo,2880,3074,2,1,2009,1,#901 - 2756 Old Leslie St,Bayview Village,Toronto,ON,43.769722,-79.36692,500000
128,Available,35,540,475,Condo,2640,2367,1,1,2013,1,1571-73 Bayview Ave,Leaside,Toronto,ON,43.7057,-79.374969,385000
129,Available,83,6767,5414,Detached,3710,21455,7,7,1972,4,#Main Fl - 454 Bloor St,Midtown Toronto,Toronto,ON,43.66571,-79.409096,3490000
130,Available,67,613,539,Condo,3180,2441,1,1,2012,1,1571-73 Bayview Ave,Leaside,Toronto,ON,43.7057,-79.374969,397000
131,Available,91,618,544,Condo,3300,2889,1,1,2019,1,#2016 - 155 Beecroft Rd,Willowdale,Toronto,ON,43.765537,-79.413155,469900
132,Available,27,732,644,Condo,3380,2613,2,1,2009,1,#403 - 35 Brian Peck Cres,Leaside,Toronto,ON,43.714638,-79.35463,425000
133,Available,108,810,713,Condo,3220,3166,2,1,2005,1,#1016 - 35 Bales Ave,Willowdale,Toronto,ON,43.760181,-79.408218,515000
134,Available,21,1465,1172,Semi-Detached,3560,3842,3,2,2004,2,88 Twenty Sixth St,Long Branch,Toronto,ON,43.600151,-79.526192,625000
135,Available,109,1621,1297,Semi-Detached,3760,2698,3,2,2008,2,#729 - 39 Queens Quay Way,Downtown,Toronto,ON,43.641346,-79.372421,438800
136,Available,112,739,650,Condo,2680,3566,2,1,2004,1,22 Norman Wesley Way,Downsview,Toronto,ON,43.743221,-79.488487,579999
137,Available,65,848,746,Condo,2590,2398,2,1,2007,1,25 Parkland Rd,Birch Cliff,Toronto,ON,43.685295,-79.281013,390000
138,Available,118,706,621,Condo,2770,2766,2,1,2012,1,2 La Rush Dr,Humber Heights - Westmount,Toronto,ON,43.691578,-79.516853,450000
139,Available,93,788,693,Condo,3290,4303,2,1,2013,1,30 Exeter St,Carleton Village,Toronto,ON,43.673656,-79.455894,699900
140,Available,93,1741,1393,Semi-Detached,3610,3676,3,2,2000,2,#305 - 9 Burnhamthorpe Cres,Islington,Toronto,ON,43.649681,-79.530716,598000
141,Available,52,3179,2543,Detached,4310,8361,5,4,1995,3,#Loft 2 - 2B Minto St,Leslieville,Toronto,ON,43.663742,-79.324966,1360000
142,Available,111,579,510,Condo,3400,2644,1,1,2012,1,#815 - 39 Queens Quay Way,Downtown,Toronto,ON,43.641346,-79.372421,430000
143,Available,64,1725,1380,Semi-Detached,3550,2152,3,2,2007,2,#716 - 169 Fort York Blvd,Niagara,Toronto,ON,43.638512,-79.400894,350000
144,Available,46,544,479,Condo,3190,1567,1,1,2019,1,#1605 - 61 Markbrook Lane,Rexdale,Toronto,ON,43.759262,-79.585342,254900
145,Available,70,516,454,Condo,3090,1875,1,1,2010,1,#1 - 105 Heath St,Midtown Toronto,Toronto,ON,43.689011,-79.400002,305000
146,Available,33,1553,1242,Semi-Detached,3770,5121,3,2,2004,2,#514 - 210 Simcoe St,Downtown,Toronto,ON,43.652451,-79.388931,833000
147,Available,66,1921,1537,Detached,3630,3443,4,3,2002,2,#724 - 2885 Bayview Ave,Bayview Village,Toronto,ON,43.767937,-79.387955,559999
148,Available,119,1605,1284,Semi-Detached,3420,2072,3,2,2005,2,#402 - 323 Richmond St,Old Town,Toronto,ON,43.653217,-79.368378,337000
149,Available,116,750,660,Condo,3340,2822,2,1,2011,1,90 Browning Ave,Riverdale,Toronto,ON,43.682064,-79.353073,459000
150,Available,24,606,533,Condo,2990,2693,1,1,2010,1,#3307 - 21 Widmer St,Downtown,Toronto,ON,43.647224,-79.391098,438000
151,Available,20,598,526,Condo,2750,2028,1,1,2016,1,#1108 - 55 Bamburgh Circ,Steeles,Toronto,ON,43.814667,-79.326698,329900
152,Available,19,1909,1527,Detached,3660,5219,4,3,1999,2,42 Rovinelli Rd,Malvern,Toronto,ON,43.815105,-79.217415,849000
153,Available,53,3115,2492,Detached,4110,2398,5,4,1998,3,#907 - 5791 Yonge St,Newtonbrook,Toronto,ON,43.784409,-79.416061,389999
154,Available,98,767,675,Condo,2640,4303,2,1,2007,1,592 The Queensway,The Queensway,Toronto,ON,43.628426,-79.49398,699900
155,Available,74,821,722,Condo,2700,2777,2,1,2013,1,44 Barkwood Cres,Hillcrest Village,Toronto,ON,43.805328,-79.355812,451700
156,Available,96,745,656,Condo,3050,3228,2,1,2009,1,#3006 - 121 Mcmahon Dr,Bayview Village,Toronto,ON,43.767746,-79.370918,525000
157,Available,31,541,476,Condo,3170,1966,1,1,2015,1,#2604 - 1 King St,Weston,Toronto,ON,43.701572,-79.520187,319800
158,Available,112,554,488,Condo,3010,3443,1,1,2010,1,#713 - 15 Greenview Ave,Newtonbrook,Toronto,ON,43.78017,-79.418251,560000
159,Available,79,1695,1356,Semi-Detached,3680,2760,3,2,1999,2,#1711 - 45 Charles St,Downtown,Toronto,ON,43.668777,-79.383995,448888
160,Available,112,1747,1398,Detached,3550,2453,4,3,1999,2,#2011 - 215 Fort York Blvd,Niagara,Toronto,ON,43.636345,-79.404808,399000
161,Available,16,574,505,Condo,3340,4334,1,1,2016,1,#4004 - 21 Grenville St,Downtown,Toronto,ON,43.661793,-79.384506,704900
162,Available,34,3383,2706,Detached,3810,2391,5,4,1996,3,#1310 - 8 Mercer St,Downtown,Toronto,ON,43.645985,-79.389938,389000
163,Available,96,567,499,Condo,3110,2355,1,1,2018,1,#201 - 3 Pemberton Ave,Newtonbrook,Toronto,ON,43.780453,-79.413811,383000
164,Available,21,1792,1434,Detached,3750,3560,4,3,1999,2,#1103 - 3 Marine Parade Dr,Mimico,Toronto,ON,43.630383,-79.476273,579000
165,Available,15,590,519,Condo,2600,2453,1,1,2016,1,61 Boydwood Lane,Rouge,Toronto,ON,43.806259,-79.158813,399000
166,Available,48,866,762,Condo,2580,3658,2,1,2012,1,75 Highland Cres,York Mills,Toronto,ON,43.743626,-79.391846,595000
167,Available,66,589,518,Condo,3030,2023,1,1,2018,1,#816 - 210 Victoria St,Downtown,Toronto,ON,43.654648,-79.37925,329000
168,Available,37,571,502,Condo,2730,3996,1,1,2009,1,17 Tineta Cres,White Haven,Toronto,ON,43.786873,-79.256088,650000
169,Available,114,1796,1437,Semi-Detached,3490,2207,3,2,2005,2,#612 - 800 Lawrence Ave,Lawrence Heights,Toronto,ON,43.714592,-79.452911,359000
170,Available,108,793,698,Condo,3090,3996,2,1,2012,1,#5 - 1500 Bathurst St,Casa Loma,Toronto,ON,43.684158,-79.419075,650000
171,Available,77,856,753,Condo,2750,3216,2,1,2008,1,16 Stanley Avenue,Bridgeport East,Kitchener,ON,43.482586,-80.470451,289500
172,Available,48,757,666,Condo,2900,8330,2,1,2011,1,548 Pinnacle Drive,Doon South,Kitchener,ON,43.377377,-80.413368,749900
173,Available,41,2165,1732,Detached,3760,3109,4,3,2003,2,198 Newbury Drive,Forest Heights,Kitchener,ON,43.423267,-80.549805,279900
174,Available,19,1598,1278,Detached,3700,3771,4,3,2002,2,1110 Fairway Road,Grand River South,Kitchener,ON,43.44854,-80.402138,339500
175,Available,17,792,697,Condo,2510,3276,2,1,2013,1,468 Doon South Drive,Doon South,Kitchener,ON,43.378914,-80.432083,294900
176,Available,81,3080,2464,Detached,3910,5054,5,4,1995,3,202 Silver Aspen Crescent,Forest Heights,Kitchener,ON,43.423897,-80.525352,455000
177,Available,10,864,760,Condo,2660,2655,2,1,2005,1,205 Highland Crescent,Victoria Hills,Kitchener,ON,43.433254,-80.523178,239000
178,Available,10,1633,1306,Semi-Detached,3410,1443,3,2,2006,2,24 Mooregate Crescent,Victoria Hills,Kitchener,ON,43.439213,-80.523491,129900
179,Available,35,646,568,Condo,2190,5942,1,1,2016,1,92 Claycroft Crescent,Forest Heights,Kitchener,ON,43.423058,-80.536461,534888
180,Available,36,596,524,Condo,3150,3649,1,1,2012,1,84 Bagot St,Onward Willow,Guelph,ON,43.541809,-80.267944,319900
181,Available,78,873,768,Condo,3400,3580,2,1,2008,1,326 Cole Rd,Hanlon Creek,Guelph,ON,43.508049,-80.234413,313900
182,Available,27,3688,2950,Detached,3430,6443,6,4,1993,3,33 Old Colony Tr,Guelph,Guelph,ON,43.509789,-80.240356,564900
183,Available,22,610,537,Condo,2680,5017,1,1,2018,1,47 Edgehill Dr,Exhibition Park,Guelph,ON,43.552586,-80.270058,439900
184,Available,43,582,512,Condo,2510,2280,1,1,2012,1,150 Victoria Rd,Guelph,Guelph,ON,43.563442,-80.240593,199905
185,Available,38,1539,1231,Semi-Detached,3840,3758,3,2,2008,2,183 ARTHUR ST N,Waverley,Guelph,ON,43.550434,-80.251793,329500
186,Available,68,1652,1322,Semi-Detached,3660,4424,3,2,2005,2,96 Silurian Drive,Grange Hill East,Guelph,ON,43.565311,-80.217117,387900
187,Available,111,870,766,Condo,3240,3877,2,1,2004,1,76 Washburn Drive,Grange Hill East,Guelph,ON,43.572025,-80.231163,339900
188,Available,42,723,636,Condo,2690,5701,2,1,2010,1,110 SIMMONDS Drive,Waverley,Guelph,ON,43.580765,-80.265869,499900
189,Available,71,1917,1534,Detached,3410,3877,4,3,2003,2,293 Paisley Road,Onward Willow,Guelph,ON,43.540306,-80.263855,339900
190,Available,85,2186,1749,Detached,3570,3763,4,3,1995,2,68 240 LONDON Road W,Exhibition Park,Guelph,ON,43.543354,-80.264183,329900
191,Available,43,891,784,Condo,2840,7972,2,1,2013,1,65 College Avenue W,Old University,Guelph,ON,43.529175,-80.237,699000
192,Available,45,1073,944,Condo,3620,3763,3,2,2007,2,91 Conroy Crescent,Guelph,Guelph,ON,43.509037,-80.251648,329900
193,Available,60,622,547,Condo,2980,3534,1,1,2016,1,33 REID Court,Hanlon Creek,Guelph,ON,43.513775,-80.231232,309900
194,Available,21,3162,2530,Detached,3690,6158,5,4,1997,3,200 Woolwich Street,Guelph,Guelph,ON,43.548298,-80.253639,539900
195,Available,90,533,469,Condo,3340,2907,1,1,2016,1,41 1/2 Nottingham Street,Old City,Guelph,ON,43.540684,-80.248528,254900
196,Available,32,807,710,Condo,3190,4105,2,1,2013,1,215 Suffolk Street W,Exhibition Park,Guelph,ON,43.543663,-80.262383,359900
197,Available,103,1736,1389,Detached,3430,2474,4,3,1994,2,40 Silvercreek Parkway,Onward Willow,Guelph,ON,43.534996,-80.273621,216900
198,Available,111,555,488,Condo,2500,3420,1,1,2017,1,31 Schroder Crescent,Grange Hill East,Guelph,ON,43.558014,-80.227051,299900
199,Available,34,3422,2738,Detached,3850,7128,5,4,1996,3,92 Arthur Street,Guelph,Guelph,ON,43.548958,-80.24704,625000
200,Available,18,1231,985,Semi-Detached,3540,3279,3,2,2004,2,107 Ferguson Street,Two Rivers,Guelph,ON,43.549145,-80.237419,287500
201,Available,73,1342,1074,Semi-Detached,3560,5417,3,2,2003,2,360 YORK RD,Two Rivers,Guelph,ON,43.548512,-80.22879,474999
202,Available,25,1613,1290,Semi-Detached,3750,2451,3,2,2002,2,113 49 RHONDA Road,West Willow Woods,Guelph,ON,43.53569,-80.279762,214900
203,Available,57,598,526,Condo,2460,4106,1,1,2013,1,66 June Avenue,Guelph,Guelph,ON,43.552708,-80.278244,360000
204,Available,11,559,492,Condo,2760,9693,1,1,2018,1,70 Downey Road,Kortright Hills,Guelph,ON,43.502979,-80.238884,849900
205,Available,98,878,773,Condo,3000,3649,2,1,2009,1,84 Bagot Street,Onward Willow,Guelph,ON,43.541809,-80.267944,319900
206,Available,55,1682,1346,Detached,3450,6443,4,3,2002,2,33 Old Colony Trail,Guelph,Guelph,ON,43.509789,-80.240356,564900
207,Available,72,4514,3611,Detached,3970,5577,6,4,1991,3,35 Kron Drive,Hanlon Creek,Guelph,ON,43.518448,-80.217987,489000
208,Available,81,561,494,Condo,3260,6101,1,1,2013,1,89 Davis Street,Guelph,Guelph,ON,43.58176,-80.222427,534900
209,Available,14,752,662,Condo,2760,4675,2,1,2006,1,194 Couling Crescent,Guelph,Guelph,ON,43.58168,-80.227325,409900
210,Available,118,1558,1246,Semi-Detached,3420,7972,3,2,2000,2,7393 Wellington Rd 51 .,Ariss,Guelph,ON,43.596718,-80.34066,699000
211,Available,102,1685,1348,Detached,3760,6843,4,3,2003,2,69 Regal Road,Guelph,Guelph,ON,43.550182,-80.301346,600000
212,Available,96,2124,1699,Detached,3740,6231,4,3,1999,2,3537 RAVENSWOOD Court,Burlington,Burlington,ON,43.352207,-79.769684,795000
213,Available,82,1920,1536,Detached,3690,3526,4,3,2003,2,3311 HANNIBAL Road,Burlington,Burlington,ON,43.367554,-79.803764,449900
214,Available,95,1912,1530,Detached,3830,4506,4,3,2001,2,# 309 - 399 ELIZABETH ST,Burlington,Burlington,ON,43.325535,-79.794739,574900
215,Available,39,1691,1353,Semi-Detached,3780,4616,3,2,2005,2,6420 CHELSEA RD,Burlington,Burlington,ON,43.422146,-79.928268,589000
216,Available,16,861,758,Condo,2450,3911,2,1,2004,1,1015 PLAINS VIEW Avenue,Aldershot,Burlington,ON,43.288479,-79.876991,499000
217,Available,34,714,628,Condo,2660,2938,2,1,2011,1,1421 WALKER&#39;S Line,Burlington,Burlington,ON,43.377296,-79.799942,374900
218,Available,106,872,767,Condo,3000,1697,2,1,2006,1,623 OXFORD Road,Burlington,Burlington,ON,43.34333,-79.790581,216500
219,Available,87,829,730,Condo,2760,4624,2,1,2007,1,5134 Des Jardines Drive,Burlington,Burlington,ON,43.393284,-79.783401,590000
220,Available,78,1789,1431,Semi-Detached,3890,5794,3,2,2008,2,2416 Guildstone Cres,West Oak Trails,Oakville,ON,43.448833,-79.745132,788888
221,Available,59,4000,3200,Detached,3480,7337,5,4,1997,3,153 Dornie Rd,Oakville,Oakville,ON,43.464684,-79.651291,999000
222,Available,44,778,685,Condo,2720,6426,2,1,2011,1,28 Sixteen Mile Dr,Oakville,Oakville,ON,43.474312,-79.740219,875000
223,Available,94,759,668,Condo,2490,6896,2,1,2013,1,1218 Lambeth Rd,Oakville,Oakville,ON,43.471313,-79.6875,938888
224,Available,84,861,758,Condo,3210,2189,2,1,2007,1,2230 Rochester Circ,Palermo West,Oakville,ON,43.42421,-79.765709,298000
225,Available,85,1675,1340,Semi-Detached,3600,4399,3,2,2006,2,2172 Parkmount Blvd,Oakville,Oakville,ON,43.49025,-79.696129,599000
226,Available,48,599,527,Condo,2730,1395,1,1,2010,1,2491 Hemmford Dr,West Oak Trails,Oakville,ON,43.426399,-79.758904,190000
227,Available,105,732,644,Condo,3280,2937,2,1,2007,1,#15 - 1300 Hampton St,Oakville,Oakville,ON,43.475967,-79.687119,399900
228,Available,99,529,466,Condo,2620,1462,1,1,2013,1,2477 Old Bronte Rd,West Oak Trails,Oakville,ON,43.434547,-79.77462,199000
229,Available,16,2168,1734,Detached,3540,4399,4,3,1999,2,2477 Old Bronte Rd,West Oak Trails,Oakville,ON,43.434547,-79.77462,599000
230,Available,90,645,568,Condo,2800,3635,1,1,2009,1,#5 - 1212 Kirstie Crt,Castle Green,Oakville,ON,43.465286,-79.698013,495000
231,Available,105,1209,967,Semi-Detached,3640,6235,3,2,2005,2,537 Weir Ave,West Oakville,Oakville,ON,43.428967,-79.700455,849000
232,Available,92,619,545,Condo,2810,4767,1,1,2018,1,#310 - 205 Lakeshore Rd,Oakville,Oakville,ON,43.436699,-79.678169,649000
233,Available,43,744,655,Condo,2430,2042,2,1,2008,1,1293 Devon Rd,Oakville,Oakville,ON,43.468716,-79.659775,278000
234,Available,68,579,510,Condo,2770,1469,1,1,2010,1,16 Ennisclare Dr,Oakville,Oakville,ON,43.461479,-79.646126,199999
235,Available,33,581,511,Condo,2550,4620,1,1,2009,1,#Ph2202 - 1359 White Oaks Blvd,Oakville,Oakville,ON,43.471966,-79.693459,629000
236,Available,33,2018,1614,Detached,3690,2203,4,3,2000,2,#522 - 2480 Prince Michael Dr,Oakville,Oakville,ON,43.497147,-79.707939,299900
237,Available,91,726,639,Condo,2460,4480,2,1,2011,1,#403 - 205 Lakeshore Rd,Oakville,Oakville,ON,43.436699,-79.678169,610000
238,Available,34,1663,1330,Semi-Detached,3660,2423,3,2,2007,2,202 - 2301 PARKHAVEN Boulevard,Uptown Core,Oakville,ON,43.476738,-79.71817,329900
239,Available,74,1584,1267,Semi-Detached,3820,6830,3,2,1999,2,1225 Lambeth Road,Oakville,Oakville,ON,43.471542,-79.686661,929900
240,Available,87,3046,2437,Detached,4350,2937,5,4,1996,3,#210 - 1490 BISHOPS GATE,Glen Abbey,Oakville,ON,43.439903,-79.739502,399900
241,Available,91,848,746,Condo,2990,2262,2,1,2008,1,208 RIVER OAKS BLVD E,Oakville,Oakville,ON,43.474735,-79.710358,308000
242,Available,40,1571,1257,Semi-Detached,3570,5875,3,2,2007,2,2306 WHISTLING SPRINGS CRES,West Oak Trails,Oakville,ON,43.447029,-79.763397,799900
243,Available,96,577,508,Condo,2250,3489,1,1,2014,1,185 Robinson Street,Oakville,Oakville,ON,43.44503,-79.667793,475000
244,Available,113,609,536,Condo,2310,4480,1,1,2019,1,205 Lakeshore Road,Oakville,Oakville,ON,43.436699,-79.678169,610000
245,Available,13,551,485,Condo,2620,1608,1,1,2010,1,146 Wedgewood Drive,Oakville,Oakville,ON,43.466675,-79.649033,218900
246,Available,95,529,466,Condo,2370,4620,1,1,2011,1,1359 White Oaks Boulevard,Oakville,Oakville,ON,43.471966,-79.693459,629000
247,Available,97,1486,1189,Semi-Detached,3640,3885,3,2,2004,2,109 BURLOAK Drive,Bronte,Oakville,ON,43.37368,-79.726707,529000
248,Available,22,1444,1155,Semi-Detached,3680,4399,3,2,2001,2,2428 EIGHTH LINE,Oakville,Oakville,ON,43.491077,-79.710068,599000
249,Available,58,548,482,Condo,2800,6529,1,1,2010,1,400 CARRIER Lane,Oakville,Oakville,ON,43.462559,-79.731163,889000
250,Available,36,567,499,Condo,2530,3598,1,1,2011,1,#61 - 2350 GRAND RAVINE DR,Oakville,Oakville,ON,43.475868,-79.721344,489900
251,Available,91,2873,2298,Detached,3830,6683,5,4,1997,3,1207 Wood Place,West Oakville,Oakville,ON,43.422874,-79.701424,910000
252,Available,76,4981,3985,Detached,4350,2900,6,4,1993,3,1 2480 Post Road,Uptown Core,Oakville,ON,43.47942,-79.727173,394900
253,Available,68,1250,1000,Semi-Detached,3820,4025,3,2,2007,2,385 Sandlewood Road,West Oakville,Oakville,ON,43.409557,-79.712807,548000
254,Available,12,872,767,Condo,2420,6963,2,1,2009,1,2141 Galena Crescent,Oakville,Oakville,ON,43.486557,-79.696915,948000
255,Available,54,1900,1520,Detached,3590,4392,4,3,1999,2,3404 Kinglet Court,Bronte,Oakville,ON,43.378624,-79.726967,598000
256,Available,78,599,527,Condo,2420,5428,1,1,2012,1,2147 NIGHTSTAR DR,Westmount,Oakville,ON,43.43993,-79.749199,739000
257,Available,28,1324,1059,Semi-Detached,3480,2791,3,2,2008,2,2486 OLD BRONTE Road,West Oak Trails,Oakville,ON,43.434551,-79.774925,380000
258,Available,11,2099,1679,Detached,3780,3158,4,3,2003,2,316 Wendy Lane,West Oakville,Oakville,ON,43.419968,-79.697166,430000
259,Available,29,4814,3851,Detached,3760,6753,6,4,1989,3,280 Sarah Cline Drive,Oakville,Oakville,ON,43.474831,-79.738518,919500
260,Available,102,525,462,Condo,2760,1641,1,1,2018,1,179 Gatwick Drive,Uptown Core,Oakville,ON,43.478359,-79.716423,223500
261,Available,24,564,496,Condo,2500,1462,1,1,2010,1,153 Dornie Road,Oakville,Oakville,ON,43.464684,-79.651291,199000
262,Available,39,1806,1445,Detached,3900,4297,4,3,1994,2,#525 - 380 MACPHERSON AVE,Midtown Toronto,Toronto,ON,43.676369,-79.405739,699000
263,Available,55,886,780,Condo,3120,4856,2,1,2005,1,#2704 - 103 THE QUEENSWAY WAY,Swansea,Toronto,ON,43.636292,-79.470467,789900
264,Available,38,580,510,Condo,2990,2330,1,1,2011,1,#725 - 10 CAPREOL CRT,Downtown,Toronto,ON,43.640224,-79.39595,379000
265,Available,103,1706,1365,Semi-Detached,3900,3492,3,2,2006,2,#2103 - 151 DAN LECKIE WAY,Downtown,Toronto,ON,43.639782,-79.397949,568000
266,Available,21,1933,1546,Detached,3820,6142,4,3,2000,2,1453 GERRARD ST E,Leslieville,Toronto,ON,43.672264,-79.321289,999000
267,Available,85,613,539,Condo,3110,2551,1,1,2014,1,#1407 - 914 YONGE ST,Midtown Toronto,Toronto,ON,43.674103,-79.388809,415000
268,Available,59,650,572,Condo,3360,3074,1,1,2013,1,77 MCGILL ST,Downtown,Toronto,ON,43.6604,-79.379234,500000
269,Available,39,3465,2772,Detached,4010,3996,5,4,1998,3,#307 - 20 BLUE JAYS WAY,Downtown,Toronto,ON,43.643845,-79.391823,650000
270,Available,98,1662,1330,Detached,3640,2385,4,3,1998,2,#902 - 150 EAST LIBERTY ST,Liberty Village,Toronto,ON,43.638775,-79.41626,388000
271,Available,111,511,450,Condo,2430,2305,1,1,2017,1,#511 - 44 GERRARD ST W,Downtown,Toronto,ON,43.658798,-79.384392,375000
272,Available,24,536,472,Condo,2420,3627,1,1,2017,1,#Th6 - 6 PIRANDELLO ST,King West Village,Toronto,ON,43.63818,-79.413895,589900
273,Available,105,624,549,Condo,2880,2760,1,1,2010,1,48 BALMORAL AVE,Midtown Toronto,Toronto,ON,43.68544,-79.395966,449000
274,Available,27,859,756,Condo,2620,4297,2,1,2006,1,148 BLYTHWOOD RD,Midtown Toronto,Toronto,ON,43.717831,-79.395996,699000
275,Available,81,2174,1739,Detached,3600,2766,4,3,2003,2,#432 - 231 FORT YORK BLVD,Niagara,Toronto,ON,43.636837,-79.406052,450000
276,Available,19,1719,1375,Detached,3700,2766,4,3,2002,2,#N707 - 455 FRONT ST E,Downtown,Toronto,ON,43.652714,-79.3563,449900
277,Available,89,3126,2501,Detached,4270,2444,5,4,1997,3,#711 - 2055 DANFORTH AVE,East Danforth,Toronto,ON,43.685455,-79.313133,397500
278,Available,58,734,646,Condo,2540,5773,2,1,2013,1,712 BROCK AVE,Wallace Emerson,Toronto,ON,43.661915,-79.439941,939000
279,Available,110,560,493,Condo,2710,2336,1,1,2009,1,#319 - 900 MOUNT PLEASANT RD,North Toronto,Toronto,ON,43.711781,-79.39164,380000
280,Available,58,1425,1140,Semi-Detached,3780,3473,3,2,2001,2,#630 - 155 DALHOUSIE ST,Downtown,Toronto,ON,43.65765,-79.376762,565000
281,Available,37,747,657,Condo,3320,2146,2,1,2009,1,#915 - 50 WESTERN BATTERY RD,Niagara,Toronto,ON,43.639881,-79.414192,349000
282,Available,106,585,515,Condo,3360,3523,1,1,2018,1,1004 126 Simcoe Street,Entertainment District,Toronto,ON,43.649025,-79.387138,573000
283,Available,116,865,761,Condo,3390,3621,2,1,2007,1,#804 - 210 SIMCOE ST,Downtown,Toronto,ON,43.652451,-79.388931,589000
284,Available,93,635,559,Condo,3050,3068,1,1,2010,1,#202 - 8 MERCER ST,Downtown,Toronto,ON,43.645985,-79.389938,499000
285,Available,115,1408,1126,Semi-Detached,3520,3682,3,2,2007,2,#4001 - 38 GRENVILLE ST,Downtown,Toronto,ON,43.661896,-79.38575,599000
286,Available,59,1685,1348,Semi-Detached,3490,4549,3,2,2008,2,#411 - 10 YONGE ST,Downtown,Toronto,ON,43.642464,-79.375519,739900
287,Available,80,1966,1573,Detached,3800,4918,4,3,1994,2,#707 - 383 ELLIS PARK RD,Swansea,Toronto,ON,43.652039,-79.470833,799900
288,Available,33,555,488,Condo,2940,3123,1,1,2018,1,#2111 - 290 ADELAIDE ST W,Downtown,Toronto,ON,43.647942,-79.390945,508000
289,Available,102,579,510,Condo,2890,3682,1,1,2016,1,#1807 - 58 ORCHARD VIEW BLVD,Midtown Toronto,Toronto,ON,43.708008,-79.400787,599000
290,Available,43,1903,1522,Detached,3870,5502,4,3,2001,2,4 A VIOLET AVE,The Beach,Toronto,ON,43.668625,-79.296623,895000
291,Available,51,1793,1434,Detached,3790,2305,4,3,2003,2,#702 - 500 SHERBOURNE ST,Downtown,Toronto,ON,43.667915,-79.375679,375000
292,Available,49,571,502,Condo,2570,2084,1,1,2019,1,#2115 - 763 BAY ST,Downtown,Toronto,ON,43.660103,-79.385086,339000
293,Available,40,1352,1082,Semi-Detached,3440,2336,3,2,2006,2,#406 - 707 DOVERCOURT RD,Dufferin Grove,Toronto,ON,43.660225,-79.428726,379900
294,Available,101,637,561,Condo,2470,5532,1,1,2017,1,82 CHISHOLM AVE,Woodbine - Lumsden,Toronto,ON,43.690174,-79.304123,899900
295,Available,22,1850,1480,Detached,3800,3560,4,3,2001,2,#616 - 6 PARKWOOD AVE,Midtown Toronto,Toronto,ON,43.685623,-79.409592,579000
296,Available,86,524,461,Condo,2540,3560,1,1,2012,1,#414 - 22 LEADER LANE,Downtown,Toronto,ON,43.649246,-79.375755,579000
297,Available,96,504,444,Condo,3200,2213,1,1,2012,1,#525 - 36 BLUE JAYS WAY,Downtown,Toronto,ON,43.644932,-79.392143,359900
298,Available,106,555,488,Condo,2720,5650,1,1,2009,1,6 GROVE AVE,Trinity - Bellwoods,Toronto,ON,43.647694,-79.42276,919000
299,Available,86,1280,1024,Semi-Detached,3680,5527,3,2,2008,2,90 FAIRLEIGH CRES,Midtown Toronto,Toronto,ON,43.70208,-79.437904,899000
300,Available,31,3831,3065,Detached,4230,7828,5,4,1998,3,295 Adelaide Street,Downtown,Toronto,ON,43.647663,-79.390419,2900000
301,Available,23,579,510,Condo,2730,5281,1,1,2012,1,40 MALLON AVE W,Leslieville,Toronto,ON,43.665806,-79.334892,859000
302,Available,52,648,570,Condo,2410,1777,1,1,2013,1,#603 - 215 FORT YORK BLVD,Niagara,Toronto,ON,43.636345,-79.404808,289000
303,Available,65,2070,1656,Detached,3760,3443,4,3,1996,2,#810 - 51 LOWER SIMCOE ST,Entertainment District,Toronto,ON,43.642208,-79.383728,560000
304,Available,70,4797,3838,Detached,3470,1905,6,4,1992,3,#1231 - 38 GRAND MAGAZINE ST,Niagara,Toronto,ON,43.637035,-79.402863,309900
305,Available,16,1238,990,Semi-Detached,3460,3504,3,2,2000,2,#407 - 105 THE QUEENSWAY AVE,Swansea,Toronto,ON,43.636173,-79.470757,569900
306,Available,15,1503,1202,Detached,3640,2613,4,3,2001,2,#2407 - 35 BALMUTO ST,Downtown,Toronto,ON,43.669456,-79.387474,425000
307,Available,110,1980,1584,Detached,3840,2428,4,3,2003,2,#609 - 222 THE ESPLANADE,Downtown,Toronto,ON,43.649731,-79.365303,395000
308,Available,36,738,649,Condo,2750,3775,2,1,2009,1,#2 B - 36 HAZELTON AVE,Midtown Toronto,Toronto,ON,43.671864,-79.393814,613999
309,Available,27,1776,1421,Semi-Detached,3640,2305,3,2,2001,2,#1315 - 150 EAST LIBERTY ST,Liberty Village,Toronto,ON,43.638775,-79.41626,375000
310,Available,67,506,445,Condo,2440,2582,1,1,2016,1,#3614 - 18 YONGE ST,Downtown,Toronto,ON,43.644455,-79.376534,420000
311,Available,90,1100,913,Townhouse,3200,6086,2,1,2005,1,#703 - 1166 BAY ST,Downtown,Toronto,ON,43.668617,-79.389435,990000
312,Available,108,884,778,Condo,2780,2336,2,1,2009,1,#910 - 75 EAST LIBERTY ST,Liberty Village,Toronto,ON,43.638306,-79.414787,379900
313,Available,107,514,452,Condo,2420,2766,1,1,2011,1,#2111 - 170 FORT YORK BLVD,Downtown,Toronto,ON,43.639343,-79.399841,449900
314,Available,112,537,473,Condo,2620,2299,1,1,2013,1,#1203 - 159 DUNDAS ST E,Downtown,Toronto,ON,43.656807,-79.375092,374000
315,Available,118,737,649,Condo,2670,4303,2,1,2006,1,1315 DANFORTH RD,Eglinton East,Toronto,ON,43.742371,-79.245285,699900
316,Available,35,1647,1318,Semi-Detached,3480,3074,3,2,2008,2,#39 - 17 PEMBROKE ST,Downtown,Toronto,ON,43.656715,-79.371559,500000
317,Available,102,1440,1152,Semi-Detached,3740,2551,3,2,2000,2,#3010 - 2191 YONGE ST,Davisville,Toronto,ON,43.705597,-79.397453,415000
318,Available,100,1788,1430,Semi-Detached,3830,2489,3,2,2005,2,#728 - 2 OLD MILL DR,Lambton Baby Point,Toronto,ON,43.648071,-79.486664,404900
319,Available,104,808,711,Condo,2720,3165,2,1,2011,1,#211 - 2 OLD MILL DR,Lambton Baby Point,Toronto,ON,43.648071,-79.486664,514900
320,Available,51,1704,1363,Detached,3770,4303,4,3,2000,2,#902 - 2261 LAKE SHORE BLVD W,Mimico,Toronto,ON,43.62001,-79.483086,699995
321,Available,59,601,529,Condo,2470,2453,1,1,2010,1,#3005 - 2015 SHEPPARD AVE E,Henry Farm,Toronto,ON,43.775208,-79.336426,399000
322,Available,75,709,624,Condo,2810,2151,2,1,2010,1,#1606 - 19 SINGER CRT,Bayview Village,Toronto,ON,43.769569,-79.369514,349900
323,Available,99,571,502,Condo,2450,5896,1,1,2019,1,129 WATSON AVE,Lambton,Toronto,ON,43.664501,-79.492035,959000
324,Available,65,855,752,Condo,2760,2447,2,1,2011,1,154 DUNBLAINE AVE,Nortown,Toronto,ON,43.734093,-79.42907,398000
325,Available,49,545,480,Condo,3180,4113,1,1,2017,1,24 CORONATION DR,West Hill,Toronto,ON,43.760899,-79.191841,669000
326,Available,35,627,552,Condo,2510,2367,1,1,2015,1,#210 - 165 CHEROKEE BLVD,Pleasant View,Toronto,ON,43.792374,-79.336693,385000
327,Available,25,783,689,Condo,3330,1924,2,1,2013,1,#5 - 175 TORYORK DR,Humber Summit,Toronto,ON,43.757954,-79.557304,312900
328,Available,15,705,620,Condo,2580,2453,2,1,2013,1,#905 - 120 HARRISON GARDEN BLVD,Willowdale,Toronto,ON,43.757988,-79.403625,399000
329,Available,109,1381,1105,Semi-Detached,3550,4168,3,2,2007,2,93 DAIRY DR,Scarborough Junction,Toronto,ON,43.701309,-79.27533,678000
330,Available,35,1752,1402,Detached,3740,1574,4,3,1996,2,#2010 - 100 MORNELLE CRT,Morningside,Toronto,ON,43.786823,-79.19548,255999
331,Available,77,584,514,Condo,3130,3811,1,1,2015,1,195 GILTSPUR DR,Downsview,Toronto,ON,43.738079,-79.501282,619900
332,Available,41,884,778,Condo,3260,2167,2,1,2011,1,#1016 - 55 DE BOERS DR,Toronto,Toronto,ON,43.75103,-79.465858,352500
333,Available,28,788,693,Condo,2450,2950,2,1,2004,1,#2308 - 2000 ISLINGTON AVE,Kingsview Village,Toronto,ON,43.697365,-79.546089,479900
334,Available,104,1278,1022,Semi-Detached,3860,4235,3,2,2006,2,#13 - 1415 KENNEDY RD,Dorset Park,Toronto,ON,43.764812,-79.280273,688888
335,Available,78,2182,1746,Detached,3680,3682,4,3,1995,2,3 JASMINE RD,Humberlea,Toronto,ON,43.721088,-79.538445,599000
336,Available,55,760,669,Condo,2980,3658,2,1,2011,1,#809 - 40 PANORAMA CRT,Rexdale,Toronto,ON,43.747585,-79.579842,595000
337,Available,38,835,735,Condo,2950,4605,2,1,2008,1,35 MAGNOLIA AVE,Kennedy Park,Toronto,ON,43.720936,-79.254662,749000
338,Available,60,1239,991,Semi-Detached,3610,3652,3,2,2004,2,#513 - 4200 BATHURST ST,Wilson Heights,Toronto,ON,43.749321,-79.437149,594000
339,Available,57,1547,1238,Semi-Detached,3860,3535,3,2,2007,2,#25 - 21 REPLIN RD,Lawrence Heights,Toronto,ON,43.717735,-79.442039,575000
340,Available,57,772,679,Condo,3350,3246,2,1,2013,1,198 GLENDORA AVE,Willowdale,Toronto,ON,43.761971,-79.397667,528000
341,Available,118,757,666,Condo,2750,3074,2,1,2011,1,53 ASPENWOOD DR,Hillcrest Village,Toronto,ON,43.807964,-79.366913,500000
342,Available,32,1265,1012,Semi-Detached,3710,3996,3,2,2005,2,627 CALEDONIA RD,Briar Hill - Belgravia,Toronto,ON,43.694397,-79.462372,650000
343,Available,46,1736,1389,Semi-Detached,3520,3442,3,2,2008,2,#903 - 335 MILL RD,Eringate - Centennial - West Deane,Toronto,ON,43.639858,-79.584564,559900
344,Available,53,578,509,Condo,2420,3227,1,1,2010,1,#730 - 2885 BAYVIEW AVE,Bayview Village,Toronto,ON,43.767937,-79.387955,524888
345,Available,100,552,486,Condo,3000,4302,1,1,2019,1,124 GREENWICH SQ,Eglinton East,Toronto,ON,43.743881,-79.231148,699800
346,Available,13,881,775,Condo,2700,3036,2,1,2013,1,#2813 - 181 VILLAGE GREEN SQ,Agincourt,Toronto,ON,43.779205,-79.281517,493900
347,Available,17,2102,1682,Detached,3540,4302,4,3,1999,2,117 VEROBEACH BLVD,Emery,Toronto,ON,43.736176,-79.544945,699800
348,Available,90,526,463,Condo,3010,2458,1,1,2017,1,43 JOHN CABOT WAY,Jane and Finch,Toronto,ON,43.738815,-79.51902,399900
349,Available,100,1950,1560,Detached,3740,1936,4,3,2000,2,#821 - 165 LEGION RD N,Mimico,Toronto,ON,43.624207,-79.488228,314900
350,Available,40,2195,1756,Detached,3530,3928,4,3,1995,2,63 JARWICK DR,Bendale,Toronto,ON,43.764198,-79.241608,639000
351,Available,15,6415,5132,Detached,3870,4297,7,7,1980,4,22 MOSSBROOK CRES,L'Amoreaux,Toronto,ON,43.809433,-79.324379,699000
352,Available,30,1348,1078,Semi-Detached,3780,4303,3,2,2004,2,92 FRANK RIVERS DR,Steeles,Toronto,ON,43.818989,-79.325394,699900
353,Available,72,1614,1291,Semi-Detached,3420,3375,3,2,2000,2,90 CRITTENDEN SQ,Malvern,Toronto,ON,43.81366,-79.234749,549000
354,Available,73,542,477,Condo,2610,2575,1,1,2009,1,#1304 - 2 ANNDALE DR,Willowdale,Toronto,ON,43.760464,-79.410248,418888
355,Available,87,1376,1101,Semi-Detached,3410,3688,3,2,2008,2,45 MILLENNIUM DR,Brookhaven - Amesbury,Toronto,ON,43.695271,-79.497498,599900
356,Available,17,500,440,Condo,2860,3252,1,1,2019,1,6 WOODY VINEWAY WAY,Bayview Village,Toronto,ON,43.788269,-79.368301,529000
357,Available,93,650,572,Condo,3380,3682,1,1,2012,1,84 MUIRHEAD RD,Pleasant View,Toronto,ON,43.780949,-79.339569,599000
358,Available,47,1801,1441,Detached,3590,2581,4,3,2000,2,#1101 - 335 MILL RD,Eringate - Centennial - West Deane,Toronto,ON,43.639858,-79.584564,419900
359,Available,73,841,740,Condo,3080,2182,2,1,2006,1,#2611 - 88 CORPORATE DR,Woburn,Toronto,ON,43.780956,-79.249779,355000
360,Available,80,646,568,Condo,2470,4088,1,1,2009,1,114 MEIGHEN AVE,Woodbine Gardens,Toronto,ON,43.703903,-79.295723,665000
361,Available,31,1668,1334,Semi-Detached,3620,4788,3,2,2008,2,821 B OXFORD ST,Mimico,Toronto,ON,43.621113,-79.507195,778900
362,Available,106,868,764,Condo,3080,3005,2,1,2011,1,132 ELVASTON DR,Victoria Village,Toronto,ON,43.728958,-79.315933,488800
363,Available,72,1932,1546,Detached,3810,1838,4,3,2002,2,#2102 - 155 BEECROFT RD,Willowdale,Toronto,ON,43.765537,-79.413155,299000
364,Available,108,535,471,Condo,3290,1900,1,1,2016,1,#1010 - 3043 FINCH WEST AVE,Emery,Toronto,ON,43.747166,-79.564651,309000
365,Available,43,2092,1674,Detached,3650,5527,4,3,1994,2,571 CUMMER AVE,Newtonbrook,Toronto,ON,43.793625,-79.387253,899000
366,Available,68,803,707,Condo,3240,4653,2,1,2005,1,31 VESSEL CRES,Port Union,Toronto,ON,43.777721,-79.137276,756900
367,Available,15,1538,1230,Detached,3440,2287,4,3,2001,2,#109 - 165 CHEROKEE BLVD,Pleasant View,Toronto,ON,43.792374,-79.336693,372000
368,Available,52,811,714,Condo,2520,2883,2,1,2012,1,37 GEMINI RD,Bayview Woods - Steeles,Toronto,ON,43.788219,-79.388046,469000
369,Available,69,894,787,Condo,3090,3129,2,1,2009,1,7 OVIDA AVE,Eatonville,Toronto,ON,43.635109,-79.543159,509000
370,Available,84,859,756,Condo,2500,1967,2,1,2010,1,#E 508 - 555 WILSON AVE,Wilson Heights,Toronto,ON,43.734035,-79.447968,319900
371,Available,116,1365,1092,Semi-Detached,3650,3197,3,2,2008,2,#49 - 49 HENDON AVE,Newtonbrook,Toronto,ON,43.780727,-79.419991,520000
372,Available,63,2195,1756,Detached,3460,2059,4,3,2003,2,#1008 - 5 NORTHTOWN WAY,Willowdale,Toronto,ON,43.774994,-79.413467,335000
373,Available,65,525,462,Condo,2890,2613,1,1,2013,1,#2504 - 2220 LAKE SHORE BLVD W,Mimico,Toronto,ON,43.62273,-79.483192,425000
374,Available,112,711,626,Condo,2620,2342,2,1,2007,1,#108 - 275 BAMBURGH CIRC,Steeles,Toronto,ON,43.81361,-79.32341,381000
375,Available,120,2177,1742,Detached,3470,2078,4,3,2002,2,#1202 - 185 BONIS AVE,Tam O'Shanter,Toronto,ON,43.785805,-79.292114,338000
376,Available,56,1729,1383,Detached,3410,1838,4,3,2000,2,#2208 - 100 ANTIBES DR,Newtonbrook,Toronto,ON,43.780666,-79.446335,299000
377,Available,67,1716,1373,Detached,3750,2090,4,3,1999,2,#509 - 525 WILSON AVE,Wilson Heights,Toronto,ON,43.734478,-79.446472,339900
378,Available,63,1402,1122,Semi-Detached,3620,4912,3,2,2006,2,80 HEPSCOTT TERR,L'Amoreaux,Toronto,ON,43.793324,-79.327263,799000
379,Available,51,1402,1122,Semi-Detached,3710,3381,3,2,2007,2,#27 - 242 JOHN GARLAND BLVD,Rexdale,Toronto,ON,43.73354,-79.592949,550000
380,Available,89,570,502,Condo,3320,5096,1,1,2010,1,7 LANDOUR AVE,Silverthorn,Toronto,ON,43.687645,-79.477287,829000
381,Available,103,765,673,Condo,3130,3375,2,1,2004,1,4937 DUNDAS ST W,Islington,Toronto,ON,43.648006,-79.529228,549000
382,Available,79,574,505,Condo,2990,2551,1,1,2014,1,90 GLEN PARK AVE,Midtown Toronto,Toronto,ON,43.711784,-79.43515,415000
383,Available,101,1484,1187,Semi-Detached,3460,4113,3,2,2004,2,#1210 - 275 BAMBURGH CIRC,Steeles,Toronto,ON,43.81361,-79.32341,669000
384,Available,73,555,488,Condo,2460,2582,1,1,2012,1,225 ATLAS AVE,Midtown Toronto,Toronto,ON,43.688213,-79.433723,420000
385,Available,117,1595,1276,Detached,3590,2797,4,3,2001,2,108 AYLESWORTH AVE,Birch Cliff,Toronto,ON,43.701328,-79.264549,455000
386,Available,88,5156,4125,Detached,4310,7992,6,4,1993,3,567 MELROSE AVE,Nortown,Toronto,ON,43.727737,-79.42942,1300000
387,Available,95,1260,1008,Semi-Detached,3430,4113,3,2,2007,2,55 LAURIE SHEPWAY WAY,Don Valley Village,Toronto,ON,43.773926,-79.361595,669000
388,Available,46,552,486,Condo,2900,3682,1,1,2018,1,33 PUMA DR,L'Amoreaux,Toronto,ON,43.802258,-79.298607,599000
389,Available,79,804,708,Condo,2610,2704,2,1,2012,1,#155 - 68 DRIFTWOOD AVE,Jane and Finch,Toronto,ON,43.753849,-79.513535,439900
390,Available,65,768,676,Condo,3170,3535,2,1,2009,1,17 WHITBREAD CRES,Jane and Finch,Toronto,ON,43.74192,-79.509659,575000
391,Available,57,3150,2520,Detached,3690,5222,5,4,1994,3,36 CASTLEBAR RD,The Queensway,Toronto,ON,43.631695,-79.510124,849500
392,Available,118,521,458,Condo,2760,2157,1,1,2015,1,92 BLANTYRE AVE,Birch Cliff,Toronto,ON,43.678131,-79.280182,350900
393,Available,24,568,500,Condo,2750,2121,1,1,2013,1,#27 -46 - 30 IRONSIDE CRES,Armdale,Toronto,ON,43.825054,-79.246819,345000
394,Available,55,634,558,Condo,2490,1955,1,1,2013,1,#302 - 801 SHEPPARD AVE W,Wilson Heights,Toronto,ON,43.752892,-79.449783,318000
395,Available,106,1428,1142,Semi-Detached,3450,5213,3,2,2003,2,#601 - 1888 BAYVIEW AVE,Midtown Toronto,Toronto,ON,43.717461,-79.37886,848000
396,Available,40,1765,1412,Detached,3720,2458,4,3,2000,2,#2308 - 88 SHEPPARD AVE E,Willowdale,Toronto,ON,43.763969,-79.407013,399800
397,Available,108,589,518,Condo,3020,1690,1,1,2015,1,#827 - 2 EVA RD,Eatonville,Toronto,ON,43.639694,-79.563148,274900
398,Available,108,1855,1484,Detached,3810,2471,4,3,1994,2,#711 - 125 PETER ST,Downtown,Toronto,ON,43.648296,-79.392952,401900
399,Available,18,575,506,Condo,3350,2390,1,1,2012,1,#1702 - 210 SIMCOE ST,Downtown,Toronto,ON,43.652451,-79.388931,388800
400,Available,76,802,706,Condo,2590,3688,2,1,2011,1,63 COUNCIL CRES,Jane and Finch,Toronto,ON,43.759514,-79.491844,599900
401,Available,75,596,524,Condo,3360,2939,1,1,2019,1,#1508 - 121 MCMAHON DR,Bayview Village,Toronto,ON,43.767746,-79.370918,478000
402,Available,10,622,547,Condo,2450,2195,1,1,2012,1,#738 - 650 LAWRENCE AVE W,Lawrence Heights,Toronto,ON,43.717121,-79.441757,357000
403,Available,75,1382,1106,Semi-Detached,3570,3651,3,2,2004,2,#3501 - 70 TEMPERANCE ST,Downtown,Toronto,ON,43.650372,-79.382347,593900
404,Available,90,1719,1375,Semi-Detached,3570,2797,3,2,2002,2,#108 - 525 WILSON AVE,Wilson Heights,Toronto,ON,43.734478,-79.446472,455000
405,Available,96,800,704,Condo,2910,2453,2,1,2004,1,#1902 - 35 HOLLYWOOD AVE,Willowdale,Toronto,ON,43.765842,-79.410057,399000
406,Available,113,538,473,Condo,2480,2576,1,1,2009,1,#1414 - 85 BLOOR ST E,Downtown,Toronto,ON,43.670372,-79.384468,419000
407,Available,40,1271,1017,Semi-Detached,3820,2692,3,2,2001,2,#2607 - 2200 LAKESHORE BLVD,Mimico,Toronto,ON,43.622883,-79.481972,437888
408,Available,61,575,506,Condo,2470,1408,1,1,2014,1,#1207 - 2550 LAWRENCE AVE E,Dorset Park,Toronto,ON,43.751743,-79.266388,229000
409,Available,45,633,557,Condo,3300,3057,1,1,2009,1,#207 - 55 ANN O&#39;REILLY RD,Port Hope,Toronto,ON,43.960762,-78.323914,497250
410,Available,12,877,772,Condo,2970,1865,2,1,2004,1,#111 - 215 FORT YORK BLVD,Niagara,Toronto,ON,43.636345,-79.404808,303400
411,Available,92,792,697,Condo,3200,3068,2,1,2012,1,#3511 - 14 YORK ST,Downtown,Toronto,ON,43.641788,-79.381874,499000
412,Available,86,801,705,Condo,3190,4789,2,1,2012,1,25 DELABO DR,York University Heights,Toronto,ON,43.76524,-79.502808,779000
413,Available,39,1838,1470,Detached,3620,2581,4,3,1996,2,#5014 - 70 TEMPERANCE ST,Downtown,Toronto,ON,43.650372,-79.382347,419900
414,Available,46,1143,1006,Condo,3280,2920,3,2,2004,2,#3105 - 33 SINGER CRT,Bayview Village,Toronto,ON,43.769611,-79.368416,475000
415,Available,91,1524,1219,Detached,3490,3621,4,3,2003,2,#602 - 11 BOGERT AVE,Lansing,Toronto,ON,43.760517,-79.411743,589000
416,Available,63,602,530,Condo,3270,5532,1,1,2018,1,9 ANTELOPE DR,Rouge,Toronto,ON,43.808025,-79.189018,899900
417,Available,71,561,494,Condo,2410,3062,1,1,2012,1,278 BETTY ANN DR N,Willowdale,Toronto,ON,43.765755,-79.433098,498000
418,Available,56,781,687,Condo,2500,2397,2,1,2005,1,#711 - 6 EVA RD,Eatonville,Toronto,ON,43.640301,-79.562302,389900
419,Available,90,1533,1226,Detached,3590,2324,4,3,2003,2,#3103 - 28 TED ROGERS WAY,Downtown,Toronto,ON,43.670547,-79.380585,378000
420,Available,28,3607,2886,Detached,4240,3441,5,4,1997,3,#2702 - 101 CHARLES ST E,Downtown,Toronto,ON,43.669643,-79.380608,559800
421,Available,108,1760,1408,Detached,3650,4230,4,3,2002,2,#Th 40 - 31 CONEFLOWER CRES,Newtonbrook,Toronto,ON,43.778427,-79.450531,688000
422,Available,61,885,779,Condo,2490,2704,2,1,2011,1,#2316 - 700 HUMBERWOOD BLVD,Rexdale,Toronto,ON,43.724766,-79.616486,439900
423,Available,46,1446,1157,Semi-Detached,3820,3492,3,2,1999,2,#1905 - 17 Anndale Dr,Willowdale,Toronto,ON,43.760136,-79.40789,568000
424,Available,70,1709,1367,Detached,3650,3910,4,3,2001,2,#305 - 39 Shank St,King West Village,Toronto,ON,43.642071,-79.414581,636000
425,Available,94,594,523,Condo,2700,3682,1,1,2010,1,9 Andrew Ave,Cliffcrest,Toronto,ON,43.721256,-79.245033,599000
426,Available,114,4239,3391,Detached,3560,2029,5,4,1996,3,#1815 - 150 Sudbury St,Little Portugal,Toronto,ON,43.641529,-79.424118,330000
427,Available,41,1615,1292,Semi-Detached,3870,5840,3,2,2006,2,23 Kenton Dr,Newtonbrook,Toronto,ON,43.778614,-79.441551,949900
428,Available,27,576,507,Condo,3240,3660,1,1,2010,1,385 Oaklawn Crescent,Orlans,Ottawa,ON,45.465637,-75.488403,339900
429,Available,90,3193,2554,Detached,3670,6782,5,4,1997,3,124 Breezehill Avenue,Ottawa,Ottawa,ON,45.404568,-75.718109,629900
430,Available,73,564,496,Condo,2920,3432,1,1,2013,1,206 Gray Crescent,Kanata,Ottawa,ON,45.317345,-75.898247,318800
431,Available,64,559,492,Condo,3220,3203,1,1,2013,1,1201 OHIO STREET UNIT#107,Alta Vista,Ottawa,ON,45.384857,-75.673737,297500
432,Available,53,582,512,Condo,2900,4090,1,1,2019,1,1141 AMBLESIDE DRIVE,Ottawa,Ottawa,ON,45.372601,-75.781059,379900
433,Available,44,1284,1027,Semi-Detached,3570,3121,3,2,2006,2,1085 BORDEN SIDE ROAD,Borden Farm - Stewart Farm - Parkwood Hills - Fisher Glen,Ottawa,ON,45.354012,-75.705315,289900
434,Available,112,1504,1203,Detached,3600,5586,4,3,2000,2,2546 NEEDHAM CRESCENT,Alta Vista,Ottawa,ON,45.371815,-75.667976,518800
435,Available,24,856,753,Condo,3020,2895,2,1,2005,1,3205 UPLANDS DRIVE UNIT#31,Hunt Club East - Western Community,Ottawa,ON,45.350307,-75.679619,268900
436,Available,39,805,708,Condo,3030,2249,2,1,2008,1,180 YORK STREET UNIT#806,Byward Market,Ottawa,ON,45.42968,-75.68856,208900
437,Available,89,1615,1292,Semi-Detached,3820,6406,3,2,2004,2,1015 CARLING AVENUE,Civic Hospital - Experimental Farm - Central Park,Ottawa,ON,45.393551,-75.717422,595000
438,Available,113,1254,1003,Semi-Detached,3760,2584,3,2,1999,2,200 BAY STREET UNIT#501,Byward Market - Parliament Hill,Ottawa,ON,45.416851,-75.705475,240000
439,Available,73,3998,3198,Detached,3990,4833,6,4,1989,3,75 ARLINGTON AVENUE,Centretown,Ottawa,ON,45.409275,-75.69487,448888
440,Available,14,1650,1320,Semi-Detached,3770,3121,3,2,2006,2,62 ESTERLAWN PRIVATE,Carlingwood West - Glabar Park - McKellar Heights,Ottawa,ON,45.368946,-75.767921,289900
441,Available,55,524,461,Condo,2810,8280,1,1,2018,1,176 GLADSTONE AVENUE,Centretown,Ottawa,ON,45.415016,-75.686661,769000
442,Available,35,729,642,Condo,2910,4199,2,1,2006,1,238 BESSERER STREET UNIT#414,Ottawa,Ottawa,ON,45.427834,-75.685471,390000
443,Available,108,1859,1487,Detached,3840,5382,4,3,2000,2,1387 ORILLIA STREET,Alta Vista,Ottawa,ON,45.385185,-75.66465,499900
444,Available,59,547,481,Condo,3020,5373,1,1,2011,1,1838 PEPPERGRASS ROAD,Orlans,Ottawa,ON,45.480251,-75.465752,499000
445,Available,42,610,537,Condo,2560,2755,1,1,2018,1,449 SADAR PRIVATE,Munster Hamlet - Richmond,Ottawa,ON,45.263744,-75.776192,255900
446,Available,105,818,720,Condo,3040,8505,2,1,2012,1,2954 PRINCE OF WALES DRIVE,Greenbelt,Ottawa,ON,45.298073,-75.70182,789900
447,Available,37,761,670,Condo,2500,2670,2,1,2012,1,2111 MONTREAL ROAD UNIT#89,Beacon Hill North,Ottawa,ON,45.449188,-75.591904,248000
448,Available,38,589,518,Condo,3350,4511,1,1,2010,1,1635 FRENETTE STREET,Orlans,Ottawa,ON,45.47591,-75.465561,419000
449,Available,65,1351,1081,Semi-Detached,3740,9648,3,2,2007,2,1 DELONG DRIVE,Ottawa,Ottawa,ON,45.453053,-75.608871,989000
450,Available,95,1252,1002,Semi-Detached,3720,3542,3,2,2006,2,770 PAUL METIVIER DRIVE,New Barrhaven,Ottawa,ON,45.265137,-75.734337,329000
451,Available,32,634,558,Condo,3290,4198,1,1,2010,1,925 BEAUCLAIRE DRIVE,Orlans,Ottawa,ON,45.486462,-75.528824,389900
452,Available,43,879,774,Condo,2840,3014,2,1,2009,1,6163 RED WILLOW DRIVE,Orlans,Ottawa,ON,45.451088,-75.531372,279900
453,Available,69,709,624,Condo,2790,3519,2,1,2007,1,374 BALINROAN CRESCENT,New Barrhaven,Ottawa,ON,45.268707,-75.732681,326800
454,Available,47,813,715,Condo,2900,6674,2,1,2006,1,81 BARONESS DRIVE,Greenbelt,Ottawa,ON,45.290211,-75.706245,619900
455,Available,42,1335,1068,Semi-Detached,3740,7375,3,2,2008,2,20 COACHMAN CRESCENT,Stittsville,Ottawa,ON,45.256332,-75.936829,685000
456,Available,64,1776,1421,Semi-Detached,3460,3229,3,2,2006,2,2423 ORIENT PARK DRIVE,Blackburn Hamlet,Ottawa,ON,45.433681,-75.552895,299900
457,Available,107,569,501,Condo,2150,4249,1,1,2018,1,1356 COLONIAL ROAD,Navan,Ottawa,ON,45.422504,-75.418571,424900
458,Available,53,618,544,Condo,2250,2849,1,1,2009,1,1042 AVIGNON COURT,Orleans,Orleans,ON,45.48325,-75.532013,284900
459,Available,86,1570,1256,Semi-Detached,3470,3199,3,2,2008,2,1139 ST EMMANUEL STREET,Orleans,Orleans,ON,45.47718,-75.540764,319900
460,Available,86,846,744,Condo,2720,4306,2,1,2007,1,5745 ANDRASI CRESCENT,Osgoode,Ottawa,ON,45.15126,-75.59787,399900
461,Available,90,4274,3419,Detached,3650,3250,6,4,1989,3,120 DELANEY DRIVE,Carp,Ottawa,ON,45.29409,-76.075279,325000
462,Available,28,725,638,Condo,2850,6999,2,1,2008,1,818 ROCKSON CRESCENT,Stittsville,Ottawa,ON,45.246834,-75.926735,899900
463,Available,29,734,646,Condo,3340,3444,2,1,2011,1,408 BRECKENRIDGE CRESCENT,Kanata,Ottawa,ON,45.355247,-75.935486,319900
464,Available,49,837,737,Condo,2450,2590,2,1,2013,1,2 MCCONNELL AVENUE,Cornwall,Cornwall,ON,45.016449,-74.707817,259000
465,Available,34,802,706,Condo,2820,3219,2,1,2010,1,1051 Glidden Av,Riverside,Windsor,ON,42.324234,-82.962349,179900
466,Available,76,1624,1299,Semi-Detached,3590,3933,3,2,2004,2,2211 CURRY,South Cameron,Windsor,ON,42.281033,-83.036537,219800
467,Available,52,1208,966,Semi-Detached,3580,4919,3,2,2000,2,2427 HOWARD,South Central,Windsor,ON,42.293015,-83.014435,274900
468,Available,62,781,687,Condo,2460,3309,2,1,2009,1,456 LAPORTE,Riverside,Windsor,ON,42.335136,-82.942261,184900
469,Available,28,2059,1647,Detached,3670,6977,4,3,1999,2,675 BRAZIL,Remington Park,Windsor,ON,42.28986,-83.01046,389900
470,Available,103,817,719,Condo,3070,2235,2,1,2012,1,1361 CAMPBELL,University,Windsor,ON,42.295723,-83.049179,124900
471,Available,81,1545,1236,Detached,3790,5187,4,3,1998,2,1565 VILLA MARIA  S,Roseland,Windsor,ON,42.247417,-83.015579,289900
472,Available,12,1556,1245,Semi-Detached,3800,5009,3,2,2008,2,1049 LENA AV,Sandwich,Windsor,ON,42.294823,-83.066208,279900
473,Available,51,1978,1582,Detached,3790,2235,4,3,1996,2,1557 LINCOLN,Walkerville,Windsor,ON,42.306332,-83.00634,124900
474,Available,102,526,463,Condo,2600,2145,1,1,2019,1,1515 GLADSTONE,Walkerville,Windsor,ON,42.30711,-83.008003,119900
475,Available,37,786,692,Condo,2660,4114,2,1,2010,1,950 ELLROSE,East Windsor,Windsor,ON,42.322353,-82.979439,229900
476,Available,52,527,464,Condo,2640,7068,1,1,2017,1,1260 -64 WYANDOTTE  E,Walkerville,Windsor,ON,42.320396,-83.019547,395000
477,Available,109,587,517,Condo,2650,5187,1,1,2016,1,1829 DOMINION,South Cameron,Windsor,ON,42.287998,-83.038437,289900
478,Available,19,526,463,Condo,2540,9661,1,1,2012,1,4140 ROSELAND  W,Roseland,Windsor,ON,42.249111,-83.009056,539900
479,Available,51,648,570,Condo,2790,2004,1,1,2012,1,472 BRIDGE,University,Windsor,ON,42.308056,-83.058739,112000
480,Available,20,560,493,Condo,2570,4689,1,1,2011,1,455 Hyde Park Rd,Oakridge,London,ON,42.966244,-81.315643,349900
481,Available,47,1447,1158,Semi-Detached,3420,3617,3,2,2005,2,1360 Glenora Dr,Stoneybrook,London,ON,43.033077,-81.239372,269900
482,Available,106,1474,1179,Semi-Detached,3680,4823,3,2,2003,2,90 DELAWARE Street,Hamilton Road,London,ON,42.975544,-81.20118,359900
483,Available,38,2134,1707,Detached,3900,3483,4,3,2003,2,2129 NORTH ROUTLEDGE PK,Hyde Park,London,ON,43.003849,-81.333084,259900
484,Available,62,1279,1023,Semi-Detached,3550,1996,3,2,2001,2,9 - 141 CONDOR Court,Argyle,London,ON,42.988762,-81.176979,148900
485,Available,17,761,670,Condo,2480,2143,2,1,2004,1,401 - 570 WILLIAM Street,Central London,London,ON,42.993401,-81.236397,159900
486,Available,71,2841,2273,Detached,3470,3490,5,4,1996,3,559 HWY,Parry Sound,Parry Sound,ON,45.440887,-80.131989,349000
487,Available,75,634,558,Condo,2660,3215,1,1,2013,1,35 - 340 AMBLESIDE Drive,Masonville,London,ON,43.020699,-81.298203,239900
488,Available,55,1638,1310,Semi-Detached,3820,5124,3,2,2008,2,5991 LUNDY&#39;S Lane,Niagara Falls,Niagara Falls,ON,43.089775,-79.093605,399000
489,Available,99,737,649,Condo,3270,2118,2,1,2009,1,3955 Portage Road,Niagara Falls,Niagara Falls,ON,43.116062,-79.099495,164900
490,Available,69,624,549,Condo,2740,3057,1,1,2010,1,4719 EPWORTH Circle,Niagara Falls,Niagara Falls,ON,43.098534,-79.069298,238000
491,Available,97,771,678,Condo,3210,3852,2,1,2006,1,7813 BEAVERDAMS Road,Niagara Falls,Niagara Falls,ON,43.09145,-79.126511,299900
492,Available,110,1475,1180,Semi-Detached,3510,4494,3,2,2004,2,6617 FREDERICA Street,Niagara Falls,Niagara Falls,ON,43.094986,-79.105583,349900
493,Available,120,1906,1525,Detached,3870,3659,4,3,2001,2,28 5070 DRUMMOND Road,Niagara Falls,Niagara Falls,ON,43.100479,-79.098167,284900
494,Available,23,1961,1569,Detached,3860,2054,4,3,2000,2,6175 Skinner Street,Niagara Falls,Niagara Falls,ON,43.074432,-79.096474,159900
495,Available,39,1279,1023,Semi-Detached,3820,7705,3,2,2005,2,1710 Garner Road,Niagara Falls,Niagara Falls,ON,43.145245,-79.149513,599900
496,Available,115,571,502,Condo,2200,1991,1,1,2009,1,3710 Main Street,Niagara Falls,Niagara Falls,ON,43.058968,-79.050613,155000
497,Available,91,748,658,Condo,2820,2888,2,1,2009,1,303 6928 AILANTHUS Avenue,Niagara Falls,Niagara Falls,ON,43.075092,-79.088997,224900
498,Available,91,625,550,Condo,2690,3827,1,1,2010,1,5026 CENTRE Street,Niagara Falls,Niagara Falls,ON,43.092335,-79.077042,298000
499,Available,39,583,513,Condo,2280,4622,1,1,2019,1,8174 ORCHARD GROVE Parkway,Niagara Falls,Niagara Falls,ON,43.092018,-79.134216,359900
500,Available,62,571,502,Condo,2730,4108,1,1,2013,1,3282 Cattell Drive,Niagara Falls,Niagara Falls,ON,43.05563,-79.042099,319900
501,Available,92,887,781,Condo,3030,4108,2,1,2012,1,4340 Seneca Street,Niagara Falls,Niagara Falls,ON,43.100246,-79.064995,319900
502,Available,113,1271,1017,Semi-Detached,3550,4521,3,2,2008,2,6697 SPENCE Street,Niagara Falls,Niagara Falls,ON,43.088139,-79.10675,352000
503,Available,96,601,529,Condo,2520,6240,1,1,2019,1,8674 MCGARRY Drive,Niagara Falls,Niagara Falls,ON,43.072556,-79.143013,485900
504,Available,120,584,514,Condo,2320,2824,1,1,2009,1,7700 Thomas Street,Niagara Falls,Niagara Falls,ON,43.056118,-79.064247,219900
505,Available,118,505,444,Condo,2720,4469,1,1,2013,1,9440 Eagle Ridge Drive,Niagara Falls,Niagara Falls,ON,43.089443,-79.158173,348000
506,Available,17,866,762,Condo,2860,2556,2,1,2006,1,4727 Jepson Street,Niagara Falls,Niagara Falls,ON,43.100815,-79.071495,199000
507,Available,86,551,485,Condo,2880,3724,1,1,2010,1,6118 Kelsey Crescent,Niagara Falls,Niagara Falls,ON,43.084431,-79.137497,289990
508,Available,79,645,568,Condo,2270,4131,1,1,2013,1,147 UNIVERSITY Avenue E,Waterloo,Waterloo,ON,43.480255,-80.513916,379900
509,Available,10,550,484,Condo,2350,3698,1,1,2010,1,#Cp625 - 330 PHILLIP ST,Waterloo,Waterloo,ON,43.47644,-80.538872,340000
510,Available,21,2139,1711,Detached,3470,5383,4,3,1999,2,300 Pilgrim Circle,Waterloo,Waterloo,ON,43.499935,-80.512299,495000
511,Available,116,574,505,Condo,2310,2175,1,1,2016,1,596 Regal Place,Waterloo,Waterloo,ON,43.477161,-80.604462,200000
512,Available,77,581,511,Condo,2920,4349,1,1,2009,1,6 Willow Street,Waterloo,Waterloo,ON,43.465473,-80.516914,399900
513,Available,16,1518,1214,Semi-Detached,3850,8101,3,2,2003,2,452 Ainsworth Court,Beechwood,Waterloo,ON,43.455589,-80.560898,744900
514,Available,57,1621,1297,Semi-Detached,3890,5003,3,2,2006,2,196 ALEXANDRA Avenue,Waterloo,Waterloo,ON,43.457123,-80.531189,460000
515,Available,88,606,533,Condo,2890,3914,1,1,2009,1,305 MAVERICK Street,Waterloo,Waterloo,ON,43.500134,-80.491669,359900
516,Available,71,831,731,Condo,3220,4013,2,1,2007,1,764 ZERMATT DR,Waterloo,Waterloo,ON,43.455921,-80.575035,369000
517,Available,54,817,719,Condo,2980,3696,2,1,2006,1,478 Lausanne Crescent,Waterloo,Waterloo,ON,43.453083,-80.575584,339900
518,Available,42,762,671,Condo,2820,4513,2,1,2010,1,#T2 -210- 330 PHILLIP ST,Waterloo,Waterloo,ON,43.47644,-80.538872,415000
519,Available,106,578,509,Condo,2280,2990,1,1,2011,1,522 Beechwood Drive,Beechwood,Waterloo,ON,43.451122,-80.562279,274900
520,Available,92,1716,1373,Semi-Detached,3500,7602,3,2,2007,2,115 Roslin Avenue,Waterloo,Waterloo,ON,43.455444,-80.526154,699000
521,Available,99,4478,3582,Detached,4250,7792,5,4,1998,3,191 King Street,Waterloo,Waterloo,ON,43.459396,-80.518845,716500
522,Available,38,581,511,Condo,2480,2447,1,1,2017,1,647 Albert Street,Waterloo,Waterloo,ON,43.491013,-80.540924,225000
523,Available,78,579,510,Condo,2180,2393,1,1,2017,1,# L18 Regal Place,Waterloo,Waterloo,ON,43.477406,-80.603355,220000
524,Available,96,1292,1034,Semi-Detached,3880,6524,3,2,2000,2,324 Tealby Crescent,Waterloo,Waterloo,ON,43.490051,-80.523369,599900
525,Available,14,772,679,Condo,2410,2718,2,1,2009,1,776 Laurelwood Drive,Waterloo,Waterloo,ON,43.470776,-80.598259,249900
526,Available,15,1673,1338,Semi-Detached,3410,3752,3,2,2002,2,176 Cavelletti Court,Waterloo,Waterloo,ON,43.489429,-80.484985,345000
527,Available,18,1302,1042,Semi-Detached,3760,4404,3,2,2006,2,279 GLENRIDGE Place,Waterloo,Waterloo,ON,43.485199,-80.511269,405000
528,Available,43,530,466,Condo,2300,1262,1,1,2017,1,130 Marshall Street,Waterloo,Waterloo,ON,43.475807,-80.515541,116000
529,Available,83,724,637,Condo,2910,7068,2,1,2007,1,472 Kingsmill Court,Beechwood,Waterloo,ON,43.46368,-80.569458,649900
530,Available,91,1336,1069,Semi-Detached,3600,3588,3,2,2007,2,986 Creekside Drive,Waterloo,Waterloo,ON,43.471558,-80.599762,329900
531,Available,68,630,554,Condo,2150,2337,1,1,2016,1,413 Bairstow Crescent,Waterloo,Waterloo,ON,43.492432,-80.508278,214900
532,Available,67,1293,1034,Semi-Detached,3830,8156,3,2,2006,2,395 Cavendish Drive,Laurelwood,Waterloo,ON,43.463894,-80.579041,750000
533,Available,52,1719,1375,Detached,3660,3696,4,3,1995,2,425 Grangewood Drive,Waterloo,Waterloo,ON,43.492649,-80.500488,339900
534,Available,43,882,776,Condo,3380,4131,2,1,2012,1,642 Ellesmere Court,Waterloo,Waterloo,ON,43.496864,-80.572464,379900
535,Available,113,2131,1705,Detached,3450,5427,4,3,1994,2,138 Stonehaven Drive,Waterloo,Waterloo,ON,43.444149,-80.544327,499000
536,Available,43,3319,2655,Detached,3970,9244,5,4,1995,3,lot #4 Regal Place,Waterloo,Waterloo,ON,43.477406,-80.603355,850000
537,Available,88,534,470,Condo,2670,5598,1,1,2019,1,405 Cider Mill Drive,Waterloo,Waterloo,ON,43.525036,-80.495377,514771
538,Available,51,866,762,Condo,3010,7602,2,1,2013,1,562 FOREST GATE CRES,Waterloo,Waterloo,ON,43.47673,-80.596878,699000
539,Available,61,1392,1114,Semi-Detached,3850,4055,3,2,1999,2,138 Windale Cres,Laurentian Hills,Kitchener,ON,43.421047,-80.507317,364999
540,Available,12,831,731,Condo,3020,2161,2,1,2013,1,1503 81 CHURCH Street,Cedar Hill,Kitchener,ON,43.446644,-80.487755,194500
541,Available,109,641,564,Condo,2660,2388,1,1,2009,1,164 Max Becker Drive,Laurentian West,Kitchener,ON,43.403786,-80.506622,215000
542,Available,116,552,486,Condo,2830,3579,1,1,2010,1,44 Eliza Avenue,Laurentian West,Kitchener,ON,43.39922,-80.524658,322175
543,Available,78,815,717,Condo,2440,4287,2,1,2009,1,300 Westmount Road E,Meinzinger State Park,Kitchener,ON,43.42606,-80.504669,385900
544,Available,38,821,722,Condo,3040,3610,2,1,2005,1,8 305 Briarmeadow Drive,Idlewood,Kitchener,ON,43.43996,-80.422363,325000
545,Available,104,766,674,Condo,3030,3277,2,1,2009,1,417 Courtland Avenue,Mill Courtland Woodside Park,Kitchener,ON,43.437489,-80.478294,295000
546,Available,115,1777,1422,Semi-Detached,3550,6886,3,2,2001,2,1133 Doon Village Road,Doon South,Kitchener,ON,43.388584,-80.431282,619900
547,Available,10,3737,2990,Detached,4200,4160,6,4,1992,3,394 Activa Avenue,Laurentian West,Kitchener,ON,43.404503,-80.519814,374500
548,Available,67,710,625,Condo,2420,4165,2,1,2009,1,35 Ridgeway Crescent,Country Hills West,Kitchener,ON,43.40662,-80.497032,374900
549,Available,65,515,453,Condo,2450,5109,1,1,2009,1,354 Apple Hill Crescent,Trussler,Kitchener,ON,43.387787,-80.4925,459900
550,Available,46,538,473,Condo,2660,3998,1,1,2009,1,283 Erinbrook Drive,Country Hills West,Kitchener,ON,43.404907,-80.495247,359900
551,Available,100,602,530,Condo,2800,4664,1,1,2011,1,480 Veronica Drive,Centreville Chicopee,Kitchener,ON,43.439445,-80.428741,419900
552,Available,47,575,506,Condo,2590,6654,1,1,2011,1,38 Amelia Street,Grand River South,Kitchener,ON,43.449482,-80.407745,599000
553,Available,112,844,743,Condo,2580,4165,2,1,2013,1,204 VANIER Drive,Vanier,Kitchener,ON,43.426662,-80.4618,374900
554,Available,26,637,561,Condo,2530,3642,1,1,2018,1,48 HIGHBROOK Street,Laurentian Hills,Kitchener,ON,43.409439,-80.499725,327900
555,Available,78,565,497,Condo,2610,2044,1,1,2015,1,17 60 ELMSDALE Drive,Laurentian Hills,Kitchener,ON,43.422153,-80.49585,184000
556,Available,31,1769,1415,Semi-Detached,3510,5720,3,2,2000,2,10 Yarrow Court,Laurentian West,Kitchener,ON,43.402744,-80.511238,514900
557,Available,57,3854,3083,Detached,3580,7765,6,4,1989,3,11 3 Sims Estate Place,Centreville Chicopee,Kitchener,ON,43.438904,-80.420242,699000
558,Available,77,885,779,Condo,2770,4663,2,1,2011,1,236 OREGON Court,Doon South,Kitchener,ON,43.387577,-80.431694,959900
559,Available,65,502,442,Condo,2870,4620,1,1,2017,1,209 Northmanor Crescent,Highland West,Kitchener,ON,43.438423,-80.549568,415900
560,Available,81,787,693,Condo,2470,1692,2,1,2008,1,227 Chestnut Hill Crescent,Doon South,Kitchener,ON,43.381294,-80.427307,152300
561,Available,79,536,472,Condo,2630,2000,1,1,2018,1,247 PIONEER Drive,Pioneer Park,Kitchener,ON,43.39362,-80.439751,180000
562,Available,107,507,446,Condo,2750,4165,1,1,2009,1,204 VANIER Drive,Vanier,Kitchener,ON,43.426662,-80.4618,374900
563,Available,69,1833,1466,Detached,3770,9598,4,3,1999,2,529 TERRINGTON Crescent,Doon South,Kitchener,ON,43.37632,-80.428032,864000
564,Available,104,1729,1383,Detached,3550,2999,4,3,2000,2,66 Borden Avenue,King East,Kitchener,ON,43.444454,-80.472672,270000
565,Available,57,1534,1227,Semi-Detached,3700,4997,3,2,2007,2,91 Georgian Crescent,Grand River North,Kitchener,ON,43.467094,-80.442169,449800
566,Available,18,1486,1189,Semi-Detached,3580,1832,3,2,2006,2,6 165 GREEN VALLEY Drive,Pioneer Park,Kitchener,ON,43.395489,-80.427216,164900
567,Available,84,617,543,Condo,2790,2109,1,1,2019,1,212 3227 KING Street E,Centreville Chicopee,Kitchener,ON,43.425385,-80.425407,189900
568,Available,43,611,538,Condo,2230,2443,1,1,2017,1,65 Cluthe Crescent,Pioneer Park,Kitchener,ON,43.397125,-80.452171,219900
569,Available,59,622,547,Condo,2260,3998,1,1,2013,1,10 Royal Orchard Place,Forest Heights,Kitchener,ON,43.415348,-80.52948,359900
570,Available,118,3883,3106,Detached,3840,3499,6,4,1993,3,41 Cambridge Avenue,Rosemount,Kitchener,ON,43.457245,-80.465225,315000
571,Available,44,1993,1594,Detached,3800,4442,4,3,2003,2,95 Bridlewreath Street,Laurentian West,Kitchener,ON,43.405163,-80.510262,399900
572,Available,46,1891,1513,Detached,3830,7086,4,3,2001,2,22 CEDARLAWN Court,Gurnett,Hamilton,ON,43.220734,-79.921524,579900
573,Available,56,829,730,Condo,2930,4275,2,1,2005,1,129 EAST 31ST Street,Raleigh,Hamilton,ON,43.234478,-79.845093,349900
574,Available,46,1542,1234,Detached,3640,6963,4,3,2003,2,23 BORDEAUX Court,Barnstown,Hamilton,ON,43.199207,-79.875671,569900
575,Available,10,594,523,Condo,3280,2687,1,1,2014,1,975 UPPER WELLINGTON Street,Bruleville,Hamilton,ON,43.224483,-79.872437,219900
576,Available,85,861,758,Condo,2950,3909,2,1,2011,1,#2 - 300 REXFORD DR,Randall,Hamilton,ON,43.207241,-79.849724,319900
577,Available,84,793,698,Condo,3290,4387,2,1,2011,1,226 SOUTHWOOD Drive,Sherwood,Hamilton,ON,43.225456,-79.818954,359000
578,Available,29,1302,1042,Semi-Detached,3870,3970,3,2,2008,2,193 East 19th Street,Inch Park,Hamilton,ON,43.236198,-79.857582,324900
579,Available,62,505,444,Condo,2930,4275,1,1,2019,1,# 703 - 66 BAY ST S,Durand,Hamilton,ON,43.255989,-79.875145,349900
580,Available,72,756,665,Condo,3360,4494,2,1,2010,1,295-297 OTTAWA Street,Crown Point West,Hamilton,ON,43.250462,-79.816887,367800
581,Available,97,811,714,Condo,3380,2809,2,1,2012,1,532 FERGUSON Avenue,North End East,Hamilton,ON,43.27071,-79.854385,229900
582,Available,51,620,546,Condo,3140,3909,1,1,2010,1,517 UPPER JAMES Street,Centremount,Hamilton,ON,43.242424,-79.875542,319900
583,Available,36,789,694,Condo,2570,3421,2,1,2010,1,5 HILTON Street,Durand,Hamilton,ON,43.248795,-79.8787,280000
584,Available,93,1736,1389,Semi-Detached,3630,4387,3,2,2007,2,48 Evans Street,Central Hamilton,Hamilton,ON,43.25713,-79.855667,359000
585,Available,63,624,549,Condo,2420,6537,1,1,2015,1,202 BELMONT Avenue,Crown Point West,Hamilton,ON,43.249962,-79.822159,535000
586,Available,57,1870,1496,Detached,3440,4582,4,3,2003,2,1749 UPPER WENTWORTH Street,Chappel East,Hamilton,ON,43.196201,-79.873352,375000
587,Available,100,560,493,Condo,2570,6537,1,1,2009,1,202 BELMONT Avenue,Crown Point West,Hamilton,ON,43.249962,-79.822159,535000
588,Available,100,649,571,Condo,2940,2516,1,1,2013,1,102 NEIL AVE,Greenford,Hamilton,ON,43.227161,-79.767403,205900
589,Available,75,747,657,Condo,3360,2443,2,1,2007,1,148 BURTON Street,Industrial Sector A and Keith,Hamilton,ON,43.263344,-79.845551,199900
590,Available,46,561,494,Condo,3390,2560,1,1,2016,1,150 AVONDALE Street,Crown Point West,Hamilton,ON,43.252605,-79.825348,209500
591,Available,74,1645,1316,Semi-Detached,3420,3999,3,2,2007,2,#335 - 5679 ARROWHEAD RD Hamilton,Bailieboro,Peterborough,ON,44.119431,-78.314758,399900
592,Available,33,734,646,Condo,3180,3999,2,1,2011,1,5679 ARROWHEAD RD|Unit 335 BAILIEBORO,Bailieboro,Peterborough,ON,44.120411,-78.314285,399900
593,Available,54,845,744,Condo,3090,4036,2,1,2010,1,803 CHAPMAN BOULEVARD,Elmvale - Eastway - Riverview - Riverview Park West,Ottawa,ON,45.396999,-75.632889,374900
594,Available,53,855,752,Condo,2810,5895,2,1,2004,1,69 PELLAN WAY,Kanata,Ottawa,ON,45.328678,-75.907623,547500
595,Available,33,1324,1059,Semi-Detached,3770,6352,3,2,2006,2,LOT 4 ST. PAUL,Riverside,Windsor,ON,42.330109,-82.943413,355000
596,Available,117,1510,1208,Semi-Detached,3660,6261,3,2,2007,2,1825 WESTMINSTER,East Windsor,Windsor,ON,42.313999,-82.967163,349900
597,Available,120,628,553,Condo,2710,4293,1,1,2014,1,649 ESTATE PK,Windsor,Windsor,ON,42.310738,-82.846184,239900
598,Available,57,858,755,Condo,3120,4555,2,1,2008,1,220 CHELTON Road,Jackson,London,ON,42.960289,-81.175217,339900
599,Available,32,1550,1240,Semi-Detached,3890,2344,3,2,2008,2,5 - 30 CLARENDON Crescent,White Oaks,London,ON,42.947899,-81.240601,174900
600,Available,102,571,502,Condo,2810,1991,1,1,2013,1,2 3710 MAIN Street,Niagara Falls,Niagara Falls,ON,43.058968,-79.050613,155000
601,Available,72,616,542,Condo,2380,4699,1,1,2016,1,6911 DEVON Drive,Niagara Falls,Niagara Falls,ON,43.074615,-79.131821,365900
602,Available,60,709,624,Condo,2860,1630,2,1,2012,1,375 King Street,Waterloo,Waterloo,ON,43.482498,-80.527054,149900
603,Available,12,1795,1436,Semi-Detached,3440,9188,3,2,1999,2,Lot #156 Snowberry Court,Waterloo,Waterloo,ON,43.457218,-80.600441,844900
604,Available,101,585,515,Condo,2770,3752,1,1,2009,1,B 176 CAVELLETTI Court,Waterloo,Waterloo,ON,43.489429,-80.484985,345000
605,Available,35,714,628,Condo,2800,1943,2,1,2006,1,7 203 FAIRWAY Road N,Centreville Chicopee,Kitchener,ON,43.432953,-80.428986,174900
606,Available,50,543,478,Condo,3070,2450,1,1,2009,1,150 AVONDALE ST,Crown Point West,Hamilton,ON,43.252605,-79.825348,200500
607,Available,107,1766,1413,Semi-Detached,3770,5375,3,2,2006,2,116 CHARLESWOOD CRES,Hamilton,Hamilton,ON,43.177521,-79.800346,439900
608,Available,15,1553,1242,Semi-Detached,3830,2411,3,2,2003,2,105 KILLARNEY Place,Stoneybrook,London,ON,43.038124,-81.226387,179900
609,Available,74,843,742,Condo,3340,5103,2,1,2010,1,21 OAKHURST CRESCENT,Blackburn Hamlet,Ottawa,ON,45.439167,-75.558022,474000
610,Available,35,1685,1348,Semi-Detached,3880,3627,3,2,2007,2,#402 - 1250 Bridletowne Circ,Bridlewood,Toronto,ON,43.794464,-79.312782,589900
611,Available,72,1702,1362,Semi-Detached,3710,2631,3,2,2007,2,#302 - 28 Empress Ave,Willowdale,Toronto,ON,43.769981,-79.411751,427900
612,Available,106,594,523,Condo,2790,4605,1,1,2019,1,#514 - 25 Laidlaw St,Toronto,Toronto,ON,43.640354,-79.426109,749000
613,Available,20,529,466,Condo,3140,2766,1,1,2016,1,255 Blythwood Rd,Midtown Toronto,Toronto,ON,43.718014,-79.392662,450000
614,Available,112,567,499,Condo,3290,1352,1,1,2012,1,#320 - 801 KING ST W,Niagara,Toronto,ON,43.642792,-79.407196,220000
615,Available,85,630,554,Condo,3170,3842,1,1,2010,1,69 GILBERT AVE,Earlscourt,Toronto,ON,43.679153,-79.457504,625000
616,Available,115,531,467,Condo,2640,1967,1,1,2010,1,#554 - 313 RICHMOND ST E,Old Town,Toronto,ON,43.653194,-79.368637,320000
617,Available,11,1657,1326,Semi-Detached,3410,3688,3,2,2006,2,359 ASHDALE AVE,Leslieville,Toronto,ON,43.674438,-79.322563,599900
618,Available,96,504,444,Condo,2440,3196,1,1,2016,1,#Th 2 - 68 CARR ST,Downtown,Toronto,ON,43.649609,-79.403625,519900
619,Available,64,2000,1600,Detached,3750,4906,4,3,1998,2,7 HARRISON ST,Little Italy,Toronto,ON,43.651443,-79.418373,798000
620,Available,61,621,546,Condo,2810,2945,1,1,2018,1,#Ph06 - 21 GRENVILLE ST,Downtown,Toronto,ON,43.661793,-79.384506,479000
621,Available,68,743,654,Condo,3280,3378,2,1,2010,1,482 SPADINA RD,Midtown Toronto,Toronto,ON,43.692696,-79.414703,549500
622,Available,109,1428,1142,Semi-Detached,3520,3314,3,2,1999,2,#419 - 68 BROADVIEW AVE,Riverdale,Toronto,ON,43.657417,-79.349815,539000
623,Available,91,4344,3475,Detached,4100,4297,6,4,1989,3,785 EASTERN AVE,Leslieville,Toronto,ON,43.66098,-79.330055,699000
624,Available,28,1718,1374,Semi-Detached,3870,6117,3,2,2006,2,152 MEDLAND ST,High Park North,Toronto,ON,43.662804,-79.465935,995000
625,Available,25,511,450,Condo,3200,4851,1,1,2012,1,162 ROSEMOUNT Avenue,Earlscourt,Toronto,ON,43.676144,-79.443947,789000
626,Available,84,590,519,Condo,2590,2274,1,1,2011,1,#Ph62 - 313 RICHMOND ST E,Old Town,Toronto,ON,43.653194,-79.368637,369900
627,Available,12,1558,1246,Semi-Detached,3550,5532,3,2,2005,2,737 AVENUE RD,Midtown Toronto,Toronto,ON,43.696072,-79.40477,899900
628,Available,30,1239,991,Semi-Detached,3860,4610,3,2,2005,2,17 BRAD ST,High Park North,Toronto,ON,43.663395,-79.458008,749900
629,Available,44,610,537,Condo,2540,4918,1,1,2013,1,51 BELLEVILLE ST,Upper Beaches,Toronto,ON,43.686947,-79.290451,799900
630,Available,27,836,736,Condo,2630,2139,2,1,2013,1,283 SNOWDON AVE,North Toronto,Toronto,ON,43.733105,-79.393219,348000
631,Available,32,786,692,Condo,2820,4912,2,1,2010,1,18 NATALIE PL,Leslieville,Toronto,ON,43.66235,-79.342567,799000
632,Available,20,857,754,Condo,3140,3135,2,1,2006,1,#808 - 110 BLOOR ST W,Midtown Toronto,Toronto,ON,43.669445,-79.39225,509900
633,Available,91,644,567,Condo,2960,5532,1,1,2012,1,80 NEWMARKET AVE,Woodbine - Lumsden,Toronto,ON,43.68996,-79.304413,899900
634,Available,120,611,538,Condo,3000,2637,1,1,2011,1,34 AUSTIN TERR,Midtown Toronto,Toronto,ON,43.678749,-79.414062,429000
635,Available,35,1693,1354,Semi-Detached,3490,3381,3,2,1999,2,#2010 - 151 VILLAGE GREEN SQ,Agincourt,Toronto,ON,43.778614,-79.281258,549888
636,Available,101,1534,1227,Detached,3830,3688,4,3,2000,2,97 CULTRA SQ,West Hill,Toronto,ON,43.758068,-79.191078,599900
637,Available,119,1607,1286,Detached,3460,3990,4,3,1997,2,1 PEGASUS TR,Woburn,Toronto,ON,43.779556,-79.225761,649000
638,Available,43,507,446,Condo,2580,2816,1,1,2019,1,175 FLORENCE AVE,Lansing,Toronto,ON,43.756256,-79.418388,458000
639,Available,43,733,645,Condo,2600,3381,2,1,2004,1,6 ALBA PL,Rexdale,Toronto,ON,43.731327,-79.604149,549900
640,Available,102,573,504,Condo,2450,3688,1,1,2016,1,210 RORY RD,Maple Leaf,Toronto,ON,43.720924,-79.483597,599900
641,Available,70,763,671,Condo,3070,5840,2,1,2011,1,7 LEHAR CRES,Hillcrest Village,Toronto,ON,43.793015,-79.361977,950000
642,Available,66,1310,1048,Semi-Detached,3410,5711,3,2,2003,2,124 ASHBOURNE DR,Eatonville,Toronto,ON,43.648678,-79.545883,929000
643,Available,24,847,745,Condo,3200,4180,2,1,2009,1,79 CHAPMAN AVE,Woodbine Gardens,Toronto,ON,43.700798,-79.297798,679900
644,Available,27,1795,1436,Detached,3730,3565,4,3,1999,2,52 FERNANDO RD,Emery,Toronto,ON,43.745102,-79.539406,579900
645,Available,40,761,670,Condo,2850,4518,2,1,2013,1,42 PARADE SQ,Highland Creek,Toronto,ON,43.791893,-79.180328,734900
646,Available,90,1728,1382,Detached,3770,4303,4,3,2001,2,103 FISHERY RD,Highland Creek,Toronto,ON,43.790642,-79.176041,699900
647,Available,33,571,502,Condo,2950,2066,1,1,2019,1,#5 - 1646 VICTORIA PARK AVE,Victoria Village,Toronto,ON,43.73098,-79.30584,336000
648,Available,64,723,636,Condo,3200,2581,2,1,2004,1,#1721 - 5 SHEPPARD AVE E,Willowdale,Toronto,ON,43.761501,-79.409882,419800
649,Available,51,1365,1092,Semi-Detached,3550,4906,3,2,2007,2,#P1 -01 - 10 BLOORVIEW PL,Don Valley Village,Toronto,ON,43.773495,-79.358963,798000
650,Available,50,601,529,Condo,3130,2151,1,1,2014,1,#32 - 83 IRWIN RD,Rexdale,Toronto,ON,43.724998,-79.559105,349900
651,Available,74,644,567,Condo,2820,2644,1,1,2013,1,207 ENNERDALE RD,Fairbank,Toronto,ON,43.693851,-79.452827,430000
652,Available,93,1781,1425,Detached,3430,1383,4,3,1999,2,#1614 - 390 DIXON RD,Kingsview Village,Toronto,ON,43.695709,-79.557632,225000
653,Available,61,582,512,Condo,2530,2146,1,1,2014,1,#408 - 3845 LAKE SHORE BLVD W,Long Branch,Toronto,ON,43.590603,-79.544258,349000
654,Available,86,539,474,Condo,3330,1844,1,1,2012,1,49 THIRTY SEVENTH ST,Long Branch,Toronto,ON,43.591671,-79.537209,300000
655,Available,13,544,479,Condo,2460,3981,1,1,2009,1,103 BAMFORD CRES,Jane and Finch,Toronto,ON,43.769268,-79.526489,647500
656,Available,28,2079,1663,Detached,3830,3658,4,3,1995,2,#1809 - 265 RIDLEY BLVD,Nortown,Toronto,ON,43.739479,-79.42408,595000
657,Available,45,578,509,Condo,3030,3191,1,1,2013,1,17 A HOBDEN PL,Richview,Toronto,ON,43.684471,-79.565704,519000
658,Available,42,858,755,Condo,2560,3068,2,1,2005,1,39 COBALT ST,Mount Dennis,Toronto,ON,43.692429,-79.498917,499000
659,Available,54,720,634,Condo,3350,3689,2,1,2005,1,22 TOULON RD,Woburn,Toronto,ON,43.761688,-79.221779,599999
660,Available,37,536,472,Condo,2750,3990,1,1,2019,1,11 ELLINGTON DR,Wexford,Toronto,ON,43.747566,-79.290649,649000
661,Available,64,1791,1433,Semi-Detached,3580,2945,3,2,1999,2,137 CONN SMYTHE DR,Scarborough Village,Toronto,ON,43.743988,-79.223457,479000
662,Available,41,800,704,Condo,3040,3995,2,1,2007,1,41 ARCHIBALD MEWS,Bendale,Toronto,ON,43.753349,-79.264595,649900
663,Available,66,1527,1222,Semi-Detached,3610,3191,3,2,2002,2,20 HEAVITREE DR,Downsview,Toronto,ON,43.726231,-79.514557,519000
664,Available,66,569,501,Condo,2720,4297,1,1,2013,1,1 B BOWSPRIT AVE,Humber Heights - Westmount,Toronto,ON,43.697193,-79.52858,699000
665,Available,105,704,620,Condo,2480,2570,2,1,2013,1,33 MUNRO BLVD,St. Andrew - Windfields,Toronto,ON,43.745895,-79.397919,418000
666,Available,45,801,705,Condo,2860,3443,2,1,2013,1,30 BUSHEY AVE,Rockcliffe - Smythe,Toronto,ON,43.6833,-79.484657,560000
667,Available,12,796,700,Condo,2950,3073,2,1,2012,1,#17 - 671 HUNTINGWOOD DR,Tam O'Shanter,Toronto,ON,43.7897,-79.30526,499900
668,Available,61,500,440,Condo,2590,2453,1,1,2013,1,#335 - 4750 YONGE ST,Toronto,Toronto,ON,43.761047,-79.410904,399000
669,Available,87,530,466,Condo,3270,3319,1,1,2014,1,#279 - 209 FORT YORK BLVD,Niagara,Toronto,ON,43.636963,-79.404671,539900
670,Available,34,869,765,Condo,2670,5527,2,1,2009,1,#1007 - 32 DAVENPORT RD,Midtown Toronto,Toronto,ON,43.673172,-79.389687,899000
671,Available,111,4314,3451,Detached,3850,8386,5,4,1995,3,#6802 - 10 YORK ST,Downtown,Toronto,ON,43.641247,-79.380821,2340000
672,Available,117,560,493,Condo,3350,2809,1,1,2011,1,#605 - 18 HOLMES AVE,Willowdale,Toronto,ON,43.778435,-79.41333,457000
673,Available,51,894,787,Condo,2580,2581,2,1,2009,1,#1908 - 23 LORRAINE DR,Willowdale,Toronto,ON,43.778015,-79.416656,419900
674,Available,43,818,720,Condo,3510,4273,2,1,2009,1,#1904 - 1 MARKET ST,Downtown,Toronto,ON,43.646873,-79.371078,695000
675,Available,31,623,548,Condo,3150,3627,1,1,2015,1,#18 - 385 The East Mall,Islington - City Centre West,Toronto,ON,43.645439,-79.558334,589900
676,Available,36,789,694,Condo,3170,2704,2,1,2012,1,#514 - 1403 Royal York Rd,Humber Heights - Westmount,Toronto,ON,43.682999,-79.525726,439900
677,Available,115,886,780,Condo,2630,2557,2,1,2012,1,#2303 - 820 Burnhamthorpe Rd Rd,Markland Wood,Toronto,ON,43.639656,-79.58271,415900
678,Available,11,590,519,Condo,2670,2121,1,1,2009,1,#904 - 1 Valhalla Inn Rd,Islington - City Centre West,Toronto,ON,43.640285,-79.559464,345000
679,Available,96,756,665,Condo,3360,3012,2,1,2007,1,#2106 - 1 Valhalla Inn Rd,Islington - City Centre West,Toronto,ON,43.640285,-79.559464,489900
680,Available,83,1315,1052,Semi-Detached,3460,2213,3,2,2008,2,#708 - 7 Michael Power Pl,Islington - City Centre West,Toronto,ON,43.644325,-79.529732,359900
681,Available,73,2093,1674,Detached,3720,2397,4,3,1997,2,#906 - 235 Sherway Gardens Rd,Islington - City Centre West,Toronto,ON,43.609261,-79.558998,389900
682,Available,105,573,504,Condo,2590,2120,1,1,2013,1,#801 - 627 The West Mall Dr,Eringate - Centennial - West Deane,Toronto,ON,43.655231,-79.570572,344888
683,Available,41,1879,1503,Detached,3610,3381,4,3,1994,2,#3 - 15 Valhalla Inn Rd,Islington - City Centre West,Toronto,ON,43.640156,-79.558861,549900
684,Available,68,586,516,Condo,2670,1905,1,1,2018,1,#2408 - 235 Sherway Gardens Rd,Islington - City Centre West,Toronto,ON,43.609261,-79.558998,309900
685,Available,74,1746,1397,Semi-Detached,3470,2765,3,2,2008,2,#1520 - 100 Harrison Garden Blvd,Willowdale,Toronto,ON,43.757233,-79.404686,449800
686,Available,21,516,454,Condo,2890,3252,1,1,2009,1,#1217 - 155 YORKVILLE AVE,Midtown Toronto,Toronto,ON,43.670319,-79.394432,529000
687,Available,37,1505,1204,Detached,3760,2397,4,3,1996,2,#705 - 100 WESTERN BATTERY RD,Niagara,Toronto,ON,43.63966,-79.415771,389900
688,Available,109,1725,1380,Semi-Detached,3520,2336,3,2,2006,2,#1102 - 100 WESTERN BATTERY RD,Niagara,Toronto,ON,43.63966,-79.415771,379900
689,Available,51,900,792,Condo,3120,4855,2,1,2004,1,#603 - 141 ROEHAMPTON AVE,Midtown Toronto,Toronto,ON,43.708694,-79.394318,789800
690,Available,95,4019,3215,Detached,4310,6080,6,4,1991,3,#1205 - 8 THE ESPLANADE AVE,Downtown,Toronto,ON,43.64613,-79.375778,989000
691,Available,76,632,556,Condo,3260,2766,1,1,2009,1,#1611 - 125 WESTERN BATTERY RD,Niagara,Toronto,ON,43.639946,-79.416664,449900
692,Available,91,704,620,Condo,2490,2207,2,1,2009,1,#225 - 380 MACPHERSON AVE,Midtown Toronto,Toronto,ON,43.676369,-79.405739,359000
693,Available,86,1702,1362,Detached,3690,1592,4,3,2003,2,#415 - 707 DOVERCOURT RD,Dufferin Grove,Toronto,ON,43.660225,-79.428726,259000
694,Available,68,607,534,Condo,2670,2871,1,1,2019,1,#314 - 101 ERSKINE AVE,Mount Pleasant West,Toronto,ON,43.711609,-79.3955,467000
695,Available,79,1771,1417,Detached,3660,3688,4,3,1996,2,#1105 - 500 ST CLAIR AVE W,Midtown Toronto,Toronto,ON,43.683372,-79.418686,599900
696,Available,116,788,693,Condo,3360,2028,2,1,2006,1,#208 - 9 SPADINA AVE,Entertainment District,Toronto,ON,43.640247,-79.392395,329900
697,Available,118,618,544,Condo,3190,1955,1,1,2012,1,#506 - 9 SPADINA AVE,Entertainment District,Toronto,ON,43.640247,-79.392395,318000
698,Available,100,546,480,Condo,3350,2735,1,1,2013,1,#3011 - 155 YORKVILLE AVE,Midtown Toronto,Toronto,ON,43.670319,-79.394432,444900
699,Available,16,2175,1740,Detached,3500,2582,4,3,2003,2,#811 - 1 MICHAEL POWER PL,Islington - City Centre West,Toronto,ON,43.643925,-79.528885,420000
700,Available,119,634,558,Condo,2970,3995,1,1,2012,1,#Ph602 - 25 EARLINGTON AVE,The Kingsway,Toronto,ON,43.661209,-79.508301,649900
701,Available,58,1702,1362,Semi-Detached,3600,3682,3,2,1999,2,#1406 - 551 THE WEST MALL RD,Etobicoke West Mall,Toronto,ON,43.651909,-79.569687,599000
702,Available,61,506,445,Condo,2870,2151,1,1,2010,1,#104 - 50 SCARBOROUGH GOLF CLUB RD,Scarborough Village,Toronto,ON,43.744297,-79.209541,349900
703,Available,110,2079,1663,Detached,3620,1752,4,3,2002,2,#1409 - 10 PARKWAY FOREST DR,Henry Farm,Toronto,ON,43.769733,-79.345482,285000
704,Available,101,1559,1247,Detached,3600,3375,4,3,2003,2,#3108 - 3303 DON MILLS RD,Don Valley Village,Toronto,ON,43.791603,-79.354248,549000
705,Available,78,513,451,Condo,2640,2465,1,1,2011,1,#1405 - 100 HARRISON GARDEN BLVD,Willowdale,Toronto,ON,43.757233,-79.404686,400900
706,Available,119,815,717,Condo,2610,3258,2,1,2012,1,#606 - 96 FIFESHIRE RD,St. Andrew - Windfields,Toronto,ON,43.76083,-79.387207,529900
707,Available,31,501,441,Condo,2430,4789,1,1,2010,1,#3 - 80 BELL ESTATE RD E,Clairlea - Birchmount,Toronto,ON,43.705589,-79.275879,779000
708,Available,14,748,658,Condo,3070,2176,2,1,2007,1,#801 - 18 WILLIAM CARSON CRES,York Mills,Toronto,ON,43.749531,-79.407188,354000
709,Available,42,2192,1754,Detached,3430,3350,4,3,1999,2,#1509 - 2111 LAKE SHORE BLVD W,Mimico,Toronto,ON,43.628983,-79.477852,545000
710,Available,79,524,461,Condo,3070,2324,1,1,2011,1,#2324 - 135 VILLAGE GREEN SQ,Agincourt,Toronto,ON,43.777565,-79.281006,378000
711,Available,11,637,561,Condo,3130,2355,1,1,2009,1,#907 - 151 VILLAGE GREEN SQ,Agincourt,Toronto,ON,43.778614,-79.281258,383000
712,Available,40,1636,1309,Semi-Detached,3630,4118,3,2,2005,2,#1511 - 30 HARRISON GARDEN BLVD,Willowdale,Toronto,ON,43.756371,-79.408394,669900
713,Available,92,844,743,Condo,3250,2607,2,1,2008,1,#2305 - 820 BURNHAMTHORPE RD,Markland Wood,Toronto,ON,43.639656,-79.58271,424000
714,Available,23,1379,1103,Semi-Detached,3590,4764,3,2,2006,2,#Block - 6443 KINGSTON RD,Highland Creek,Toronto,ON,43.791302,-79.158119,774900
715,Available,44,3514,2811,Detached,4060,4180,6,4,1989,3,#2007 - 16 BROOKERS LANE,Humber Bay Shores,Toronto,ON,43.626965,-79.478485,679900
716,Available,89,565,497,Condo,3200,2182,1,1,2019,1,#1505 - 133 TORRESDALE AVE,Newtonbrook,Toronto,ON,43.778614,-79.452042,354990
717,Available,60,642,565,Condo,3240,2267,1,1,2019,1,#308 - 28 HARRISON GARDEN BLVD,Willowdale,Toronto,ON,43.756668,-79.408623,368800
718,Available,27,1564,1251,Semi-Detached,3810,4057,3,2,2006,2,#2009 - 5 VALHALLA INN RD,Islington - City Centre West,Toronto,ON,43.640293,-79.559761,659999
719,Available,103,1598,1278,Detached,3530,1905,4,3,1996,2,#1109 - 5 SHADY GOLFWAY GLWY,Toronto,Toronto,ON,43.653225,-79.383186,309900
720,Available,51,627,552,Condo,2620,1905,1,1,2017,1,#808 - 3380 EGLINTON AVE E,Scarborough Village,Toronto,ON,43.744812,-79.214561,309900
721,Available,57,506,445,Condo,2750,2336,1,1,2017,1,#1801 - 16 BROOKERS LANE,Humber Bay Shores,Toronto,ON,43.626965,-79.478485,379999
722,Available,44,1730,1384,Semi-Detached,3670,1905,3,2,2007,2,235 Sherway Gardens Road,Islington - City Centre West,Toronto,ON,43.609261,-79.558998,309900
723,Available,96,521,458,Condo,2910,2458,1,1,2010,1,#710 - 100 HARRISON GARDEN BLVD,Willowdale,Toronto,ON,43.757233,-79.404686,399900
724,Available,69,587,517,Condo,2800,2730,1,1,2010,1,#1534 - 120 HARRISON GARDEN BLVD,Willowdale,Toronto,ON,43.757988,-79.403625,444000
725,Available,72,1372,1098,Semi-Detached,3780,2305,3,2,2005,2,#72 - 3 CENTENNIAL PARK RD,Eringate - Centennial - West Deane,Toronto,ON,43.651314,-79.58139,374900
726,Available,82,547,481,Condo,2540,1758,1,1,2015,1,#1508 - 50 BRIAN HARRISON WAY,Bendale,Toronto,ON,43.773582,-79.258919,286000
727,Available,81,707,622,Condo,2770,2520,2,1,2010,1,#2402 - 2220 LAKE SHORE BLVD W,Mimico,Toronto,ON,43.62273,-79.483192,409900
728,Available,55,603,531,Condo,3160,1402,1,1,2011,1,#1109 - 40 BAY MILLS BLVD,Tam O'Shanter,Toronto,ON,43.780746,-79.30529,228000
729,Available,74,729,642,Condo,2830,3073,2,1,2004,1,#120 - 50 SCARBOROUGH GOLF CLUB RD,Scarborough Village,Toronto,ON,43.744297,-79.209541,499900
730,Available,18,589,518,Condo,3200,3381,1,1,2018,1,#2402 - 70 FOREST MANOR RD,Henry Farm,Toronto,ON,43.774895,-79.345955,550000
731,Available,55,643,566,Condo,3380,3314,1,1,2011,1,#808 - 2 COVINGTON RD,Englemount - Lawrence,Toronto,ON,43.721115,-79.430847,539000
732,Available,12,900,792,Condo,3060,3700,2,1,2011,1,# 2905 - 70 TOWN CENTRE CT,Bendale,Scarborough,ON,43.773689,-79.255424,370000
733,Available,114,1409,1127,Semi-Detached,3690,3504,3,2,2004,2,#209 - 2240 LAKE SHORE BLVD W,Mimico,Toronto,ON,43.621063,-79.483322,569900
734,Available,116,1673,1338,Semi-Detached,3600,1997,3,2,2007,2,#523 - 650 SHEPPARD AVE E,Bayview Village,Toronto,ON,43.768475,-79.381607,324800
735,Available,110,629,554,Condo,3300,5963,1,1,2015,1,#3107 -3- 4438 SHEPPARD AVE E,Agincourt,Toronto,ON,43.788311,-79.268082,970000
736,Available,98,609,536,Condo,2990,2397,1,1,2010,1,#1506 A - 710 HUMBERWOOD BLVD,Rexdale,Toronto,ON,43.724556,-79.616455,389900
737,Available,52,734,646,Condo,2470,3191,2,1,2007,1,#Ph01 - 1070 SHEPPARD AVE W,York University Heights,Toronto,ON,43.750637,-79.465103,519000
738,Available,47,566,498,Condo,2550,2176,1,1,2010,1,#Lph05 - 797 DON MILLS RD,Flemingdon Park,Toronto,ON,43.719494,-79.337746,354000
739,Available,109,990,822,Townhouse,3100,2877,2,1,2009,1,#2004 - 4101 SHEPPARD AVE E,Agincourt,Toronto,ON,43.78344,-79.283562,468000
740,Available,50,1660,1328,Semi-Detached,3630,3073,3,2,1999,2,#301 - 60 PAVANE LINKWAY WAY,Flemingdon Park,Toronto,ON,43.711529,-79.322899,499900
741,Available,84,1574,1259,Detached,3870,5490,4,3,2003,2,174 Hawthorne Avenue,Old Ottawa East,Ottawa,ON,45.414005,-75.676537,509900
742,Available,57,630,554,Condo,2590,2050,1,1,2017,1,1791 Maple Grove Road,Stittsville,Kanata,ON,45.288254,-75.921722,205000
743,Available,57,778,685,Condo,2660,5867,2,1,2013,1,708 Clearbrook Drive,New Barrhaven,Ottawa,ON,45.273212,-75.725487,544900
744,Available,104,703,619,Condo,2510,4619,2,1,2009,1,2112 Benjamin Avenue,Carlingwood West - Glabar Park - McKellar Heights,Ottawa,ON,45.364918,-75.764206,429000
745,Available,12,1468,1174,Semi-Detached,3590,6622,3,2,2008,2,#B - 8 Meadowlands Drive,Crestview - Meadowlands,Ottawa,ON,45.350327,-75.734428,615000
746,Available,45,778,685,Condo,2940,6449,2,1,2010,1,#A - 8 Meadowlands Drive,Crestview - Meadowlands,Ottawa,ON,45.350327,-75.734428,599000
747,Available,84,1247,998,Semi-Detached,3820,4942,3,2,2007,2,#1202 - 90 Landry Street,Vanier,Ottawa,ON,45.437595,-75.671364,459000
748,Available,73,625,550,Condo,3060,5383,1,1,2013,1,8 Metropole Private,Westboro Beach,Ottawa,ON,45.398041,-75.749512,500000
749,Available,93,728,641,Condo,2590,6728,2,1,2009,1,565 Erinwoods Circle,New Barrhaven,Ottawa,ON,45.252438,-75.716637,624900
750,Available,114,1998,1598,Detached,3500,6783,4,3,1996,2,#606 - 95 Bronson Avenue,Byward Market - Parliament Hill,Ottawa,ON,45.416809,-75.708519,630000
751,Available,85,539,474,Condo,2910,3758,1,1,2019,1,730 Bowercrest Crescent,Gloucester,Ottawa,ON,45.281384,-75.677872,349000
752,Available,104,637,561,Condo,3100,6239,1,1,2015,1,110 Springfield Road,New Edinburgh,Ottawa,ON,45.442364,-75.677185,579500
753,Available,63,532,468,Condo,2860,4306,1,1,2017,1,316 Lafontaine Avenue,Vanier,Ottawa,ON,45.436268,-75.655144,399900
754,Available,111,728,641,Condo,2920,3229,2,1,2006,1,#2004 - 70 Landry Street,Vanier,Ottawa,ON,45.437824,-75.671967,299900
755,Available,50,1862,1490,Detached,3490,3790,4,3,1996,2,1890 La Chapelle Street,Orlans,Ottawa,ON,45.444027,-75.534828,352000
756,Available,49,627,552,Condo,2820,4306,1,1,2010,1,6073 Jardin Des Treflieres Gardens,Orlans,Ottawa,ON,45.448956,-75.539833,399900
757,Available,70,1502,1202,Semi-Detached,3550,4198,3,2,2008,2,144 Destiny Private,Orlans,Ottawa,ON,45.473946,-75.457664,389900
758,Available,16,1184,1042,Condo,3450,2691,3,2,2000,2,#705 - 470 Laurier Avenue,Byward Market - Parliament Hill,Ottawa,ON,45.416191,-75.70417,249900
759,Available,12,1490,1192,Semi-Detached,3830,5705,3,2,2004,2,2019 Featherston Drive,Elmvale - Eastway - Riverview - Riverview Park West,Ottawa,ON,45.386192,-75.635803,529900
760,Available,62,4620,3696,Detached,4270,8828,6,4,1992,3,2838 Grandeur Avenue,Crystal Bay - Lakeview Park - Britannia Village,Ottawa,ON,45.362141,-75.8022,819900
761,Available,53,586,516,Condo,2530,5163,1,1,2012,1,181 Whispering Winds Way,Orlans,Ottawa,ON,45.429375,-75.527229,479500
762,Available,28,601,529,Condo,3280,4790,1,1,2011,1,29 Ballymore Avenue,Greenboro East,Ottawa,ON,45.371174,-75.627319,444900
763,Available,60,899,791,Condo,3080,9689,2,1,2011,1,523 Tillbury Avenue,Carlingwood - McKellar Park - Laurentien View,Ottawa,ON,45.379673,-75.756599,899900
764,Available,119,1589,1271,Detached,3530,3552,4,3,1994,2,93 Kennevale Drive,Barrhaven West - Old Barrhaven,Ottawa,ON,45.267208,-75.768303,329900
765,Available,51,759,668,Condo,3030,4340,2,1,2006,1,15 Bartley Crescent,Barrhaven,Ottawa,ON,45.272297,-75.748703,434000
766,Available,39,598,526,Condo,2440,5480,1,1,2015,1,9 Marier Road,Vanier,Ottawa,ON,45.441936,-75.670975,509000
767,Available,115,854,752,Condo,2700,3014,2,1,2012,1,290 Paseo Private,Centrepointe,Ottawa,ON,45.342701,-75.764977,279900
768,Available,91,562,495,Condo,2950,4942,1,1,2018,1,#PH8 - 150 Caroline Avenue,Island Park,Ottawa,ON,45.399307,-75.734589,459000
769,Available,104,1714,1371,Detached,3630,8074,4,3,1997,2,301 Osgoode Street,Sandy Hill,Ottawa,ON,45.425793,-75.676636,749900
770,Available,69,534,470,Condo,3090,2906,1,1,2015,1,#2 - 70 Prestige Circle,Orlans,Ottawa,ON,45.491394,-75.495026,269900
771,Available,64,804,708,Condo,2680,5276,2,1,2009,1,3 Pentry Lane,Old Ottawa South,Ottawa,ON,45.389938,-75.68399,490000
772,Available,25,1655,1324,Semi-Detached,3450,3299,3,2,2000,2,41 Courtney Road,Kanata,Kanata,ON,45.291538,-75.87384,329900
773,Available,91,2603,2082,Detached,3600,9599,5,4,1995,3,504 Khamsin Street,Stittsville,Ottawa,ON,45.287533,-75.914436,359900
